[
  {
    "Id": 1,
    "District": "Ampara",
    "MoH": "Addalaichenai",
    "Name": "Orryngo Pharmacy",
    "Address": "Main Street, Addalaichenai",
    "Phone": 672277036,
    "WhatsApp": "+94772660787",
    "Viber": "+94772660787",
    "Email": "NULL",
    "Latitude": 7.2489373,
    "Longitude": 81.8579509
  },
  {
    "Id": 2,
    "District": "Ampara",
    "MoH": "Akkaraipattu",
    "Name": "Osu Sala, Akkaraipattu",
    "Address": "74, TD/02, Akkaraipattu",
    "Phone": 672057625,
    "WhatsApp": "+94773710480",
    "Viber": "+94773710480",
    "Email": "NULL",
    "Latitude": 7.2223386,
    "Longitude": 81.8501348
  },
  {
    "Id": 3,
    "District": "Ampara",
    "MoH": "Akkaraipattu",
    "Name": "BIO pharmacy",
    "Address": "Main Street Akkaraipattu",
    "Phone": 770367674,
    "WhatsApp": "+94770367674",
    "Viber": "",
    "Email": "NULL",
    "Latitude": 7.233244,
    "Longitude": 81.8516279
  },
  {
    "Id": 4,
    "District": "Ampara",
    "MoH": "Akkaraipattu",
    "Name": "SMS pharmacy",
    "Address": "Akkaraipattu",
    "Phone": 672279494,
    "WhatsApp": "+94755322552",
    "Viber": "+94755322552",
    "Email": "NULL",
    "Latitude": 7.2210681,
    "Longitude": 81.8499919
  },
  {
    "Id": 5,
    "District": "Ampara",
    "MoH": "Akkaraipattu",
    "Name": "Welcome pharmacy",
    "Address": "No 218, Main Street, Akkaraipattu",
    "Phone": 777197333,
    "WhatsApp": "+94777197333",
    "Viber": "",
    "Email": "NULL",
    "Latitude": 7.2207575,
    "Longitude": 81.8499442
  },
  {
    "Id": 6,
    "District": "Ampara",
    "MoH": "Akkaraipattu",
    "Name": "Zam Zam Pharmacy",
    "Address": "Main Street, Akkaraipattu",
    "Phone": 672277698,
    "WhatsApp": "+94777559440",
    "Viber": "+94777559440",
    "Email": "NULL",
    "Latitude": 7.2209008,
    "Longitude": 81.8497807
  },
  {
    "Id": 7,
    "District": "Ampara",
    "MoH": "Akkaraipattu",
    "Name": "Nova Pharmacy",
    "Address": "104/ Main Street, Akkaraipattu",
    "Phone": 771358848,
    "WhatsApp": "+94772551276",
    "Viber": "+94772551276",
    "Email": "NULL",
    "Latitude": 7.2280536,
    "Longitude": 81.8504009
  },
  {
    "Id": 8,
    "District": "Ampara",
    "MoH": "Ampara",
    "Name": "Osu Sala, Ampara",
    "Address": "Temple Junction, D. S. Senanayake Veediya, Ampara.",
    "Phone": 632223088,
    "WhatsApp": "+94718492104",
    "Viber": "+94718492104",
    "Email": "NULL",
    "Latitude": 7.3017563,
    "Longitude": 81.6747295
  },
  {
    "Id": 9,
    "District": "Ampara",
    "MoH": "Ampara",
    "Name": "Prabhoda Pharmacy",
    "Address": "Prabhodha Hospitals Pvt Ltd, Pandukabaya Mw, Ampara",
    "Phone": 635674013,
    "WhatsApp": "+94760747526",
    "Viber": "+94714913329",
    "Email": "NULL",
    "Latitude": 7.291981,
    "Longitude": 81.675578
  },
  {
    "Id": 10,
    "District": "Ampara",
    "MoH": "Ampara",
    "Name": "Cargills Food City Pharmacy",
    "Address": "Ampara",
    "Phone": 632222372,
    "WhatsApp": "+94772781305",
    "Viber": "+94772781305",
    "Email": "NULL",
    "Latitude": 7.2914037,
    "Longitude": 81.6753017
  },
  {
    "Id": 11,
    "District": "Ampara",
    "MoH": "Dehiattakandiya",
    "Name": "Oslaka Pharmacy",
    "Address": "Dehiattakandiya",
    "Phone": 705259783,
    "WhatsApp": "+94718492104",
    "Viber": "+94718492104",
    "Email": "NULL",
    "Latitude": 7.6712796,
    "Longitude": 81.046484
  },
  {
    "Id": 12,
    "District": "Ampara",
    "MoH": "Kalmunai",
    "Name": "Arokya Pharmacy and Grocery",
    "Address": "299, Batticoloa Road, Kalmunai",
    "Phone": 774754678,
    "WhatsApp": "+94774754668",
    "Viber": "+94774754668",
    "Email": "NULL",
    "Latitude": 7.7309971,
    "Longitude": 81.6747295
  },
  {
    "Id": 13,
    "District": "Ampara",
    "MoH": "Kalmunai",
    "Name": "New Harcourts Pharmacy",
    "Address": "266/4, Main Street, Kalmunai",
    "Phone": 672226292,
    "WhatsApp": "+94773815005",
    "Viber": "+94773815005",
    "Email": "NULL",
    "Latitude": 7.4039225,
    "Longitude": 81.8311393
  },
  {
    "Id": 14,
    "District": "Ampara",
    "MoH": "Kalmunai",
    "Name": "T.M.M. Pharmacy",
    "Address": "No 446, Main Street, Kalmuni",
    "Phone": 777999772,
    "WhatsApp": "+94777999772",
    "Viber": "",
    "Email": "NULL",
    "Latitude": 7.4144035,
    "Longitude": 81.8260633
  },
  {
    "Id": 15,
    "District": "Ampara",
    "MoH": "Kalmunai North",
    "Name": "Aboo Pharmacy",
    "Address": "310, Main Street, Natpiddimunai 02, Kalmunai",
    "Phone": 755195545,
    "WhatsApp": "+94755195545",
    "Viber": "+94755195545",
    "Email": "NULL",
    "Latitude": 7.4162404,
    "Longitude": 81.8114529
  },
  {
    "Id": 16,
    "District": "Ampara",
    "MoH": "Kalmunai South",
    "Name": "City Pharmacy",
    "Address": "Main Street, Kalmunai",
    "Phone": 773508343,
    "WhatsApp": "+94773508343",
    "Viber": "+94773508343",
    "Email": "NULL",
    "Latitude": 7.4056647,
    "Longitude": 81.8311366
  },
  {
    "Id": 17,
    "District": "Ampara",
    "MoH": "Mahaoya",
    "Name": "Unico Pharmacy",
    "Address": "Mahaoya",
    "Phone": 776912014,
    "WhatsApp": "+94705259783",
    "Viber": "+94705259783",
    "Email": "NULL",
    "Latitude": 7.5315865,
    "Longitude": 81.3564869
  },
  {
    "Id": 18,
    "District": "Ampara",
    "MoH": "Nintavur",
    "Name": "Best Medical",
    "Address": "No 31 Main Street, Ninthavur",
    "Phone": 776688664,
    "WhatsApp": "+94776688664",
    "Viber": "",
    "Email": "NULL",
    "Latitude": 0,
    "Longitude": 0
  },
  {
    "Id": 19,
    "District": "Ampara",
    "MoH": "Nintavur",
    "Name": "Osu Sala, Ninthavur",
    "Address": "Main Street, Nintavur.",
    "Phone": "",
    "WhatsApp": "+94714442638",
    "Viber": "+94714442638",
    "Email": "NULL",
    "Latitude": 7.2223386,
    "Longitude": 81.8501348
  },
  {
    "Id": 20,
    "District": "Ampara",
    "MoH": "Nintavur",
    "Name": "SSI Pharmacy & Costemics",
    "Address": "No. 83, Bank Road, Nintavur 13",
    "Phone": 672250826,
    "WhatsApp": "+94788423501",
    "Viber": "+94777845297",
    "Email": "NULL",
    "Latitude": 7.355904,
    "Longitude": 81.847025
  },
  {
    "Id": 21,
    "District": "Ampara",
    "MoH": "Padiyathalawa",
    "Name": "New Ruhunu Pharmacy",
    "Address": "Padiyathalawa",
    "Phone": 713386560,
    "WhatsApp": "+94713386560",
    "Viber": "+94766424005",
    "Email": "NULL",
    "Latitude": 7.3925126,
    "Longitude": 81.2436227
  },
  {
    "Id": 22,
    "District": "Ampara",
    "MoH": "Pottuvil",
    "Name": "Jespa Pharmacy",
    "Address": "Pottuvil",
    "Phone": 776691089,
    "WhatsApp": "+94776691089",
    "Viber": "",
    "Email": "NULL",
    "Latitude": 6.8752706,
    "Longitude": 81.8306334
  },
  {
    "Id": 23,
    "District": "Ampara",
    "MoH": "Sainthamaruthu",
    "Name": "Imaad Pharmacy & Channelling",
    "Address": "No. 554, Main Street, Sainthamaruthu-7",
    "Phone": 672222856,
    "WhatsApp": "+94773678090",
    "Viber": "+94773678090",
    "Email": "NULL",
    "Latitude": 7.3941435,
    "Longitude": 81.8345806
  },
  {
    "Id": 24,
    "District": "Ampara",
    "MoH": "Sammanthurai",
    "Name": "Al-Bayan Pharmacy",
    "Address": "No 91, Main Street, Sammanthurai",
    "Phone": 776153088,
    "WhatsApp": "+94776153088",
    "Viber": "",
    "Email": "NULL",
    "Latitude": 7.3574841,
    "Longitude": 81.7951054
  },
  {
    "Id": 25,
    "District": "Ampara",
    "MoH": "Sammanthurai",
    "Name": "Jafas pharmacy",
    "Address": "Hijra Junction, Sammanthurai",
    "Phone": 779047078,
    "WhatsApp": "+94779047078",
    "Viber": "+94779047078",
    "Email": "NULL",
    "Latitude": 7.3620931,
    "Longitude": 81.8036292
  },
  {
    "Id": 26,
    "District": "Ampara",
    "MoH": "Sammanthurai",
    "Name": "Medicare Pharmacy",
    "Address": "Hospital Road, Samanthurai",
    "Phone": 672260129,
    "WhatsApp": "+94777863324",
    "Viber": "+94777863324",
    "Email": "NULL",
    "Latitude": 7.3574841,
    "Longitude": 81.7951054
  },
  {
    "Id": 27,
    "District": "Ampara",
    "MoH": "Thirukkovil",
    "Name": "APS Pharmacy",
    "Address": "Main Street, Thirukovil",
    "Phone": 755231046,
    "WhatsApp": "+94755231046",
    "Viber": "",
    "Email": "NULL",
    "Latitude": 28.0884977,
    "Longitude": -82.7379329
  },
  {
    "Id": 28,
    "District": "Ampara",
    "MoH": "Thirukkovil",
    "Name": "S.C. Pharmacy",
    "Address": "Main Street, Thirukovil",
    "Phone": 750502995,
    "WhatsApp": "+94750502995",
    "Viber": "+94750502995",
    "Email": "NULL",
    "Latitude": 32.480811,
    "Longitude": -80.981375
  },
  {
    "Id": 29,
    "District": "Ampara",
    "MoH": "Uhana",
    "Name": "New Gampaha Pharmacy",
    "Address": "Uhana",
    "Phone": 772778261,
    "WhatsApp": "+94772778261",
    "Viber": "+94772778261",
    "Email": "NULL",
    "Latitude": 7.3633338,
    "Longitude": 81.6349876
  },
  {
    "Id": 30,
    "District": "Ampara",
    "MoH": "Uhana",
    "Name": "Osada Pharmacy",
    "Address": "Gonagala",
    "Phone": 766754140,
    "WhatsApp": "+94755389851",
    "Viber": "+94755389851",
    "Email": "NULL",
    "Latitude": 0,
    "Longitude": 0
  },
  {
    "Id": 31,
    "District": "Ampara",
    "MoH": "Uhana",
    "Name": "Osada Pharmacy",
    "Address": "Uhana",
    "Phone": 772451749,
    "WhatsApp": "+94772451749",
    "Viber": "+94772451749",
    "Email": "NULL",
    "Latitude": 0,
    "Longitude": 0
  },
  {
    "Id": 32,
    "District": "Ampara",
    "MoH": "Uhana",
    "Name": "Ajith Pharmacy",
    "Address": "Uhana",
    "Phone": 772778261,
    "WhatsApp": "+94772778261",
    "Viber": "+94772778261",
    "Email": "NULL",
    "Latitude": 0,
    "Longitude": 0
  },
  {
    "Id": 33,
    "District": "Ampara",
    "MoH": "Damana",
    "Name": "Medicare Pharmacy",
    "Address": "Hingurana",
    "Phone": 773350347,
    "WhatsApp": "+94775461886",
    "Viber": "+94775461886",
    "Email": "NULL",
    "Latitude": 7.2284165,
    "Longitude": 81.6728089
  },
  {
    "Id": 34,
    "District": "Anuradhapura",
    "MoH": "Anuradhapura",
    "Name": "Osu Sala, Anuradhapura",
    "Address": "414/4, 2nd stage, Godage Mw, Anuradapura.",
    "Phone": 252227488,
    "WhatsApp": "+94775832932",
    "Viber": "+94775832932",
    "Email": "NULL",
    "Latitude": 8.3113518,
    "Longitude": 80.4036508
  },
  {
    "Id": 35,
    "District": "Anuradhapura",
    "MoH": "Galenbindunuwewa",
    "Name": "New Sriya Pharmacy",
    "Address": "Kekirawa Road, Galenbindunuwewa",
    "Phone": 772581959,
    "WhatsApp": "+94772581959",
    "Viber": "",
    "Email": "NULL",
    "Latitude": 8.042103,
    "Longitude": 80.593833
  },
  {
    "Id": 36,
    "District": "Anuradhapura",
    "MoH": "Galenbindunuwewa",
    "Name": "Thejaka Pharmacy",
    "Address": "No.117, Kekirawa Road, Galenbindunuwewa",
    "Phone": 764832600,
    "WhatsApp": "+94764832600",
    "Viber": "",
    "Email": "NULL",
    "Latitude": 8.042103,
    "Longitude": 80.593833
  },
  {
    "Id": 37,
    "District": "Anuradhapura",
    "MoH": "Galenbindunuwewa",
    "Name": "Widuri Pharmacy",
    "Address": "Near Hospital, Yakalla, Megodawewa",
    "Phone": 715383578,
    "WhatsApp": "+94715383578",
    "Viber": "",
    "Email": "NULL",
    "Latitude": 8.2157061,
    "Longitude": 80.7023799
  },
  {
    "Id": 38,
    "District": "Anuradhapura",
    "MoH": "Galnewa",
    "Name": "New Sharn Pharmacy & Grocery",
    "Address": "No.06, New Shopping Complex, Galnewa",
    "Phone": 779283511,
    "WhatsApp": "+94713427040",
    "Viber": "",
    "Email": "NULL",
    "Latitude": 8.0369211,
    "Longitude": 80.4725346
  },
  {
    "Id": 39,
    "District": "Anuradhapura",
    "MoH": "Galnewa",
    "Name": "Sakura Pharmacy & Grocery",
    "Address": "No114, New Town ,Galnewa",
    "Phone": 715540798,
    "WhatsApp": "+94715540798",
    "Viber": "",
    "Email": "NULL",
    "Latitude": 8.0349244,
    "Longitude": 80.4796546
  },
  {
    "Id": 40,
    "District": "Anuradhapura",
    "MoH": "Galnewa",
    "Name": "Suwa Sharn Medical Centre & Pharmacy",
    "Address": "Jaya Mawatha, New town, Galnewa",
    "Phone": 710151700,
    "WhatsApp": "+94710151700",
    "Viber": "",
    "Email": "NULL",
    "Latitude": 8.0369211,
    "Longitude": 80.4725346
  },
  {
    "Id": 41,
    "District": "Anuradhapura",
    "MoH": "Horowpathana",
    "Name": "B.S. Family Care",
    "Address": "Anuradhapura Road, Horowpathana",
    "Phone": 777078993,
    "WhatsApp": "+94777078993",
    "Viber": "",
    "Email": "NULL",
    "Latitude": 8.547152,
    "Longitude": 80.82977
  },
  {
    "Id": 42,
    "District": "Anuradhapura",
    "MoH": "Horowpathana",
    "Name": "M.K. Pharmacy",
    "Address": "Main Street, Horowpothana",
    "Phone": 778483840,
    "WhatsApp": "+94778483840",
    "Viber": "",
    "Email": "NULL",
    "Latitude": 8.5492023,
    "Longitude": 80.8314737
  },
  {
    "Id": 43,
    "District": "Anuradhapura",
    "MoH": "Horowpathana",
    "Name": "New Praveena Pharmacy",
    "Address": "Vauniya Road, Horowpothana",
    "Phone": 773547558,
    "WhatsApp": "+94773547558",
    "Viber": "",
    "Email": "NULL",
    "Latitude": 8.5504119,
    "Longitude": 80.8323154
  },
  {
    "Id": 44,
    "District": "Anuradhapura",
    "MoH": "Horowpathana",
    "Name": "Renuka Pharmacy",
    "Address": "Vauniya Road, Horowpothana",
    "Phone": 715420573,
    "WhatsApp": "+94715420573",
    "Viber": "",
    "Email": "NULL",
    "Latitude": 8.7542029,
    "Longitude": 80.4982402
  },
  {
    "Id": 45,
    "District": "Anuradhapura",
    "MoH": "Ipalogama",
    "Name": "Cargills Pharmacy",
    "Address": "Ranajayapura, Ipalogama",
    "Phone": 252262000,
    "WhatsApp": "+94712279568",
    "Viber": "",
    "Email": "NULL",
    "Latitude": 8.0719177,
    "Longitude": 80.546471
  },
  {
    "Id": 46,
    "District": "Anuradhapura",
    "MoH": "Ipalogama",
    "Name": "Ceylon Super Pharmacy",
    "Address": "Kalawewa, Wijithapura",
    "Phone": 779493131,
    "WhatsApp": "+94779493131",
    "Viber": "",
    "Email": "NULL",
    "Latitude": 8.0240377,
    "Longitude": 80.5290765
  },
  {
    "Id": 47,
    "District": "Anuradhapura",
    "MoH": "Kahatagasdigiliya",
    "Name": "Bollegala Pharmacy",
    "Address": "Hospital Side, Kahatagasdigiliya",
    "Phone": 729910679,
    "WhatsApp": "+94729910679",
    "Viber": "",
    "Email": "NULL",
    "Latitude": 8.4229542,
    "Longitude": 80.6937177
  },
  {
    "Id": 48,
    "District": "Anuradhapura",
    "MoH": "Kahatagasdigiliya",
    "Name": "Bollegala Pharmacy",
    "Address": "No.106f, Main Street, Kahatagasdigiliya",
    "Phone": 729910679,
    "WhatsApp": "+94729910679",
    "Viber": "",
    "Email": "NULL",
    "Latitude": 8.4229542,
    "Longitude": 80.6937177
  },
  {
    "Id": 49,
    "District": "Anuradhapura",
    "MoH": "Kahatagasdigiliya",
    "Name": "Bollegala Pharmacy",
    "Address": "No. 93, Main Street, Kahatagasdigiliya",
    "Phone": 727360694,
    "WhatsApp": "+94727360694",
    "Viber": "",
    "Email": "NULL",
    "Latitude": 8.4261626,
    "Longitude": 80.6870243
  },
  {
    "Id": 50,
    "District": "Anuradhapura",
    "MoH": "Kebithigollewa",
    "Name": "Suwasetha Pharmacy",
    "Address": "Main Street, Kebithigollewa, Anuradhapura",
    "Phone": 714632190,
    "WhatsApp": "+94779145673",
    "Viber": "",
    "Email": "NULL",
    "Latitude": 8.6408916,
    "Longitude": 80.6696816
  },
  {
    "Id": 51,
    "District": "Anuradhapura",
    "MoH": "Kekirawa",
    "Name": "Kekirawa Osusala",
    "Address": "Bus Stand, Kekirawa",
    "Phone": 719711234,
    "WhatsApp": "+94719711234",
    "Viber": "",
    "Email": "NULL",
    "Latitude": 8.0413011,
    "Longitude": 80.5961789
  },
  {
    "Id": 52,
    "District": "Anuradhapura",
    "MoH": "Kekirawa",
    "Name": "Samana Pharmacy",
    "Address": "Kandy Road, Maradankadawala",
    "Phone": 775339532,
    "WhatsApp": "+94775339532",
    "Viber": "",
    "Email": "NULL",
    "Latitude": 8.1168652,
    "Longitude": 80.5605111
  },
  {
    "Id": 53,
    "District": "Anuradhapura",
    "MoH": "Kekirawa",
    "Name": "Sanjeewa Pharmacy",
    "Address": "No.136, Main Road, Kekirawa",
    "Phone": 715350160,
    "WhatsApp": "+94777798718",
    "Viber": "",
    "Email": "NULL",
    "Latitude": 8.0379707,
    "Longitude": 80.5988366
  },
  {
    "Id": 54,
    "District": "Anuradhapura",
    "MoH": "Kekirawa",
    "Name": "Tharaka Pharmacy",
    "Address": "Habarana Road, Maradankadawala",
    "Phone": 702101735,
    "WhatsApp": "+94772511700",
    "Viber": "",
    "Email": "NULL",
    "Latitude": 8.1274586,
    "Longitude": 80.5629332
  },
  {
    "Id": 55,
    "District": "Anuradhapura",
    "MoH": "Kekirawa",
    "Name": "Thenuwara Pharmacy",
    "Address": "No. 7d, Main St, Kekirawa",
    "Phone": 775123777,
    "WhatsApp": "+94775123777",
    "Viber": "",
    "Email": "NULL",
    "Latitude": 8.04044,
    "Longitude": 80.5978999
  },
  {
    "Id": 56,
    "District": "Anuradhapura",
    "MoH": "MC Anuradhapura",
    "Name": "C.P. Mohamed Pharmacy",
    "Address": "No 20/21/22, Market Place, Anuradhapura",
    "Phone": 714479445,
    "WhatsApp": "+94714479445",
    "Viber": "",
    "Email": "NULL",
    "Latitude": 8.3166135,
    "Longitude": 80.4009674
  },
  {
    "Id": 57,
    "District": "Anuradhapura",
    "MoH": "MC Anuradhapura",
    "Name": "Chamee Pharmaceuticals (Pvt) Ltd",
    "Address": "No 28, New Bus Stand, Anuradhapura",
    "Phone": 773129190,
    "WhatsApp": "+94773129190",
    "Viber": "",
    "Email": "NULL",
    "Latitude": 8.3113518,
    "Longitude": 80.4036508
  },
  {
    "Id": 58,
    "District": "Anuradhapura",
    "MoH": "MC Anuradhapura",
    "Name": "New Chamee Pharmacy",
    "Address": "No 08, Main Street, Anuradhapura",
    "Phone": 714623151,
    "WhatsApp": "+94714623151",
    "Viber": "",
    "Email": "NULL",
    "Latitude": 8.322301,
    "Longitude": 80.402635
  },
  {
    "Id": 59,
    "District": "Anuradhapura",
    "MoH": "MC Anuradhapura",
    "Name": "New Pharmacy",
    "Address": "No.155, Bandaranayaka M.W., Anuradhapura",
    "Phone": 777368900,
    "WhatsApp": "+94777368900",
    "Viber": "",
    "Email": "NULL",
    "Latitude": 8.3273832,
    "Longitude": 80.4089609
  },
  {
    "Id": 60,
    "District": "Anuradhapura",
    "MoH": "MC Anuradhapura",
    "Name": "New Prasanna Pharmacy",
    "Address": "No.2341, Main Street Bank Site, Anuradhapura",
    "Phone": 775765204,
    "WhatsApp": "+94775765204",
    "Viber": "",
    "Email": "NULL",
    "Latitude": 8.3113518,
    "Longitude": 80.4036508
  },
  {
    "Id": 61,
    "District": "Anuradhapura",
    "MoH": "MC Anuradhapura",
    "Name": "Queens Pharmacy",
    "Address": "No.3,31d -1/1, Mithripala Senanayaka M.W, Anuradhapura",
    "Phone": 773624531,
    "WhatsApp": "+94773624531",
    "Viber": "",
    "Email": "NULL",
    "Latitude": 8.3113518,
    "Longitude": 80.4036508
  },
  {
    "Id": 62,
    "District": "Anuradhapura",
    "MoH": "MC Anuradhapura",
    "Name": "Asiri Pharmacy",
    "Address": "Kada 12, Anuradhapura",
    "Phone": 727477860,
    "WhatsApp": "+94727477860",
    "Viber": "+94727477860",
    "Email": "NULL",
    "Latitude": 8.3275143,
    "Longitude": 80.4090992
  },
  {
    "Id": 63,
    "District": "Anuradhapura",
    "MoH": "MC Anuradhapura",
    "Name": "The Pharmacy",
    "Address": "New town, Anuradhapura",
    "Phone": 718653111,
    "WhatsApp": "+94718653111",
    "Viber": "+94718653111",
    "Email": "NULL",
    "Latitude": 8.3273832,
    "Longitude": 80.4089609
  },
  {
    "Id": 64,
    "District": "Anuradhapura",
    "MoH": "MC Anuradhapura",
    "Name": "Sarath pharmacy",
    "Address": "Main Street, New town, Anuradhapura",
    "Phone": 711348751,
    "WhatsApp": "+94711348751",
    "Viber": "+94711348751",
    "Email": "NULL",
    "Latitude": 8.3322628,
    "Longitude": 80.413178
  },
  {
    "Id": 65,
    "District": "Anuradhapura",
    "MoH": "MC Anuradhapura",
    "Name": "New Chamee Pharmacy",
    "Address": "Bank town, Anuradhapura",
    "Phone": 773129190,
    "WhatsApp": "+94773129190",
    "Viber": "",
    "Email": "NULL",
    "Latitude": 8.322301,
    "Longitude": 80.402635
  },
  {
    "Id": 66,
    "District": "Anuradhapura",
    "MoH": "MC Anuradhapura",
    "Name": "New Chamee Pharmacy",
    "Address": "Kada 50, Anuradhapura",
    "Phone": 773129190,
    "WhatsApp": "+94773129190",
    "Viber": "",
    "Email": "NULL",
    "Latitude": 8.322301,
    "Longitude": 80.402635
  },
  {
    "Id": 67,
    "District": "Anuradhapura",
    "MoH": "MC Anuradhapura",
    "Name": "Araliya Pharmacy",
    "Address": "No.06, Infront of Hospital, Anuradhapura",
    "Phone": 716493175,
    "WhatsApp": "+94716493175",
    "Viber": "+94716493175",
    "Email": "NULL",
    "Latitude": 8.3113518,
    "Longitude": 80.4036508
  },
  {
    "Id": 68,
    "District": "Anuradhapura",
    "MoH": "MC Anuradhapura",
    "Name": "Amaya Pharmacy",
    "Address": "Kada 12, Anuradhapura",
    "Phone": 714477870,
    "WhatsApp": "+94714477870",
    "Viber": "",
    "Email": "NULL",
    "Latitude": 8.3265274,
    "Longitude": 80.410101
  },
  {
    "Id": 69,
    "District": "Anuradhapura",
    "MoH": "Medawachchiya",
    "Name": "Asiri Pharmacy",
    "Address": "No. 07, Public Market, Medawachchiya",
    "Phone": 712205648,
    "WhatsApp": "+94718573119",
    "Viber": "",
    "Email": "NULL",
    "Latitude": 8.5374813,
    "Longitude": 80.4909806
  },
  {
    "Id": 70,
    "District": "Anuradhapura",
    "MoH": "Medawachchiya",
    "Name": "Dulan Pharmacy",
    "Address": "Opposite of Hospital, Medawachchiya",
    "Phone": 718206428,
    "WhatsApp": "+94718206428",
    "Viber": "",
    "Email": "NULL",
    "Latitude": 8.5404058,
    "Longitude": 80.4924334
  },
  {
    "Id": 71,
    "District": "Anuradhapura",
    "MoH": "Medawachchiya",
    "Name": "K.B.J. Pharmacy",
    "Address": "Opposite Of Hospital, Medawachchiya",
    "Phone": 772535404,
    "WhatsApp": "+94772535404",
    "Viber": "",
    "Email": "NULL",
    "Latitude": 8.5412712,
    "Longitude": 80.4920133
  },
  {
    "Id": 72,
    "District": "Anuradhapura",
    "MoH": "Mihinthale",
    "Name": "Chanu Pharmacy",
    "Address": "Matale Junction, Anuradhapura",
    "Phone": 705819584,
    "WhatsApp": "+94705819584",
    "Viber": "",
    "Email": "NULL",
    "Latitude": 8.3328161,
    "Longitude": 80.4561354
  },
  {
    "Id": 73,
    "District": "Anuradhapura",
    "MoH": "Mihinthale",
    "Name": "Lakidu Pharmacy",
    "Address": "Anuradhapura Rd, Mihintale",
    "Phone": 710707396,
    "WhatsApp": "+94710707396",
    "Viber": "",
    "Email": "NULL",
    "Latitude": 8.3113518,
    "Longitude": 80.4036508
  },
  {
    "Id": 74,
    "District": "Anuradhapura",
    "MoH": "Mihinthale",
    "Name": "Lanka Pharmacy",
    "Address": "Rambewa Rd, Mihintale",
    "Phone": 773782506,
    "WhatsApp": "+94773782506",
    "Viber": "",
    "Email": "NULL",
    "Latitude": 8.35,
    "Longitude": 80.5
  },
  {
    "Id": 75,
    "District": "Anuradhapura",
    "MoH": "Mihinthale",
    "Name": "Samasee Health Care",
    "Address": "Matale Junction. Anuradhapura",
    "Phone": 703536685,
    "WhatsApp": "+94703536685",
    "Viber": "",
    "Email": "NULL",
    "Latitude": 8.3328161,
    "Longitude": 80.4561354
  },
  {
    "Id": 76,
    "District": "Anuradhapura",
    "MoH": "Nachchaduwa",
    "Name": "Moscow Pharmacy",
    "Address": "Main Street, Nachchaduwa",
    "Phone": 773272565,
    "WhatsApp": "+94773272565",
    "Viber": "",
    "Email": "NULL",
    "Latitude": 46.7379434,
    "Longitude": -117.000621
  },
  {
    "Id": 77,
    "District": "Anuradhapura",
    "MoH": "Nachchaduwa",
    "Name": "Namals Pharmacy",
    "Address": "Nachchaduwa",
    "Phone": 761266731,
    "WhatsApp": "+94761266731",
    "Viber": "",
    "Email": "NULL",
    "Latitude": 8.2554964,
    "Longitude": 80.4827074
  },
  {
    "Id": 78,
    "District": "Anuradhapura",
    "MoH": "Nochchiyagama",
    "Name": "Dedunu Pharmacy",
    "Address": "No.24, Kusumpura Road, Nochchiyagama",
    "Phone": 771840626,
    "WhatsApp": "+94771840626",
    "Viber": "",
    "Email": "NULL",
    "Latitude": 8.2642883,
    "Longitude": 80.2101026
  },
  {
    "Id": 79,
    "District": "Anuradhapura",
    "MoH": "Nochchiyagama",
    "Name": "Hiru Pharmacy & Grocery",
    "Address": "Front of the Hospital, Nochchiyagama",
    "Phone": 702049188,
    "WhatsApp": "+94702049188",
    "Viber": "",
    "Email": "NULL",
    "Latitude": 8.2642215,
    "Longitude": 80.2101643
  },
  {
    "Id": 80,
    "District": "Anuradhapura",
    "MoH": "Nochchiyagama",
    "Name": "New Dedunu Pharmacy",
    "Address": "Nochchiyagama",
    "Phone": 771840626,
    "WhatsApp": "+94771840626",
    "Viber": "",
    "Email": "NULL",
    "Latitude": 8.2642883,
    "Longitude": 80.2101026
  },
  {
    "Id": 81,
    "District": "Anuradhapura",
    "MoH": "Nochchiyagama",
    "Name": "Pragathi Pharmacy & Grocery",
    "Address": "No. 31,Kusumpura Road, Nochchiyagama",
    "Phone": 712749070,
    "WhatsApp": "+94712749070",
    "Viber": "",
    "Email": "NULL",
    "Latitude": 8.2867136,
    "Longitude": 80.2154524
  },
  {
    "Id": 82,
    "District": "Anuradhapura",
    "MoH": "Nochchiyagama",
    "Name": "Samanala Pharmacy & Hospital",
    "Address": "No.420, Kusumpura road, Nochchiyagama",
    "Phone": 788888061,
    "WhatsApp": "+94788888061",
    "Viber": "",
    "Email": "NULL",
    "Latitude": 8.2867136,
    "Longitude": 80.2154524
  },
  {
    "Id": 83,
    "District": "Anuradhapura",
    "MoH": "Nuwaragam Palatha Central",
    "Name": "First Care Pharmacy",
    "Address": "Thisawewa, Anuradhapura",
    "Phone": 713776427,
    "WhatsApp": "+94713776427",
    "Viber": "",
    "Email": "NULL",
    "Latitude": 8.3425079,
    "Longitude": 80.381763
  },
  {
    "Id": 84,
    "District": "Anuradhapura",
    "MoH": "Nuwaragam Palatha Central",
    "Name": "Kalana Pharmacy",
    "Address": "Pemaduwa, Vilachchiya",
    "Phone": 716402904,
    "WhatsApp": "+94716402904",
    "Viber": "",
    "Email": "NULL",
    "Latitude": 0,
    "Longitude": 0
  },
  {
    "Id": 85,
    "District": "Anuradhapura",
    "MoH": "Nuwaragam Palatha East",
    "Name": "Eiffel Pharmacy",
    "Address": "No152/a,b,M,Mailagas Junction, Anuradhapura",
    "Phone": 772538777,
    "WhatsApp": "+94710720720",
    "Viber": "",
    "Email": "NULL",
    "Latitude": 8.3164197,
    "Longitude": 80.4143875
  },
  {
    "Id": 86,
    "District": "Anuradhapura",
    "MoH": "Nuwaragam Palatha East",
    "Name": "Isiwara Pharmacy",
    "Address": "No.09, Kada 50,Anuradhapura",
    "Phone": 712349748,
    "WhatsApp": "+94716078985",
    "Viber": "",
    "Email": "NULL",
    "Latitude": 8.323131,
    "Longitude": 80.415246
  },
  {
    "Id": 87,
    "District": "Anuradhapura",
    "MoH": "Nuwaragam Palatha East",
    "Name": "New City Pharmacy",
    "Address": "Dahaiyagama, Anuradhapura",
    "Phone": 726633196,
    "WhatsApp": "+94718653120",
    "Viber": "",
    "Email": "NULL",
    "Latitude": 8.3174336,
    "Longitude": 80.3976247
  },
  {
    "Id": 88,
    "District": "Anuradhapura",
    "MoH": "Nuwaragam Palatha East",
    "Name": "Saveesa Pharmacy",
    "Address": "No. 641, Airport Road, Anuradhapura",
    "Phone": 714612906,
    "WhatsApp": "+94716903344",
    "Viber": "",
    "Email": "NULL",
    "Latitude": 8.2960222,
    "Longitude": 80.4359152
  },
  {
    "Id": 89,
    "District": "Anuradhapura",
    "MoH": "Nuwaragam Palatha East",
    "Name": "Udira Pharmacy & Grocery",
    "Address": "Wijayapura",
    "Phone": 772073568,
    "WhatsApp": "+94768614828",
    "Viber": "",
    "Email": "NULL",
    "Latitude": 0,
    "Longitude": 0
  },
  {
    "Id": 90,
    "District": "Anuradhapura",
    "MoH": "Palagala",
    "Name": "Pubbogama Pharmacy",
    "Address": "Pubbogama",
    "Phone": 761537960,
    "WhatsApp": "+94761537960",
    "Viber": "",
    "Email": "NULL",
    "Latitude": 7.9286512,
    "Longitude": 80.5965262
  },
  {
    "Id": 91,
    "District": "Anuradhapura",
    "MoH": "Palugaswewa",
    "Name": "Food City Express",
    "Address": "Dambulla Road, Habarana",
    "Phone": 775096182,
    "WhatsApp": "+94775096182",
    "Viber": "",
    "Email": "NULL",
    "Latitude": 8.0322147,
    "Longitude": 80.7519272
  },
  {
    "Id": 92,
    "District": "Anuradhapura",
    "MoH": "Palugaswewa",
    "Name": "Suwa Sampatha Pharmacy",
    "Address": "Kekirawa Road, Habarana",
    "Phone": 711915583,
    "WhatsApp": "+94711915583",
    "Viber": "",
    "Email": "NULL",
    "Latitude": 8.0387266,
    "Longitude": 80.7568315
  },
  {
    "Id": 93,
    "District": "Anuradhapura",
    "MoH": "Palugaswewa",
    "Name": "Suwamadura Pharmacy (Pvt) Ltd",
    "Address": "No.19, Dambulla Road, Habarana",
    "Phone": 778981512,
    "WhatsApp": "+94763090280",
    "Viber": "",
    "Email": "NULL",
    "Latitude": 7.4944098,
    "Longitude": 80.3733615
  },
  {
    "Id": 94,
    "District": "Anuradhapura",
    "MoH": "Rajanganaya",
    "Name": "Harshani Pharmacy",
    "Address": "No. 297, Rajanganaya",
    "Phone": 715888317,
    "WhatsApp": "+94715888317",
    "Viber": "",
    "Email": "NULL",
    "Latitude": 8.1657207,
    "Longitude": 80.1964443
  },
  {
    "Id": 95,
    "District": "Anuradhapura",
    "MoH": "Rajanganaya",
    "Name": "Sadamini Pharmacy",
    "Address": "Shopping Complex, 5 Mile Post, Rajanganaya",
    "Phone": 778525433,
    "WhatsApp": "+94778525433",
    "Viber": "",
    "Email": "NULL",
    "Latitude": 8.1657207,
    "Longitude": 80.1964443
  },
  {
    "Id": 96,
    "District": "Anuradhapura",
    "MoH": "Rambewa",
    "Name": "Suwa Sarana Pharmacy & Grocery",
    "Address": "Rambewa",
    "Phone": 704095566,
    "WhatsApp": "+94701631018",
    "Viber": "",
    "Email": "NULL",
    "Latitude": 8.4401074,
    "Longitude": 80.5049445
  },
  {
    "Id": 97,
    "District": "Anuradhapura",
    "MoH": "Rambewa",
    "Name": "New Suwa Sahana Pharmacy",
    "Address": "A9 Rd, Rambewa",
    "Phone": 766801680,
    "WhatsApp": "+94766801680",
    "Viber": "",
    "Email": "NULL",
    "Latitude": 8.1558494,
    "Longitude": 80.29586
  },
  {
    "Id": 98,
    "District": "Anuradhapura",
    "MoH": "Thambuththegama",
    "Name": "Dinu Pharmacy",
    "Address": "Rajina Junction, Thambuththegama",
    "Phone": 772693078,
    "WhatsApp": "+94772693078",
    "Viber": "",
    "Email": "NULL",
    "Latitude": 8.1622214,
    "Longitude": 80.3006088
  },
  {
    "Id": 99,
    "District": "Anuradhapura",
    "MoH": "Thambuththegama",
    "Name": "Mahaweli Pharmacy & Grocery",
    "Address": "No.06, Hospital Road, Thambuththegama",
    "Phone": 771307871,
    "WhatsApp": "+94763714803",
    "Viber": "",
    "Email": "NULL",
    "Latitude": 8.1528593,
    "Longitude": 80.2945941
  },
  {
    "Id": 100,
    "District": "Anuradhapura",
    "MoH": "Thambuththegama",
    "Name": "Medi Plus Pharmacy & Grocery",
    "Address": "Rajina Junction, Thambuththegama",
    "Phone": 769206712,
    "WhatsApp": "+94712253613",
    "Viber": "",
    "Email": "NULL",
    "Latitude": 8.1616669,
    "Longitude": 80.3001465
  },
  {
    "Id": 101,
    "District": "Anuradhapura",
    "MoH": "Thambuththegama",
    "Name": "Tharindu Pharmacy & Grocery",
    "Address": "No.03, Hospital Road, Thambuththegama",
    "Phone": 771232937,
    "WhatsApp": "+94771232937",
    "Viber": "",
    "Email": "NULL",
    "Latitude": 6.8468021,
    "Longitude": 79.9265188
  },
  {
    "Id": 102,
    "District": "Anuradhapura",
    "MoH": "Thirappane",
    "Name": "Lahiru Pharmacy",
    "Address": "Kandy Road, Thirappane",
    "Phone": 716091820,
    "WhatsApp": "+94716091820",
    "Viber": "",
    "Email": "NULL",
    "Latitude": 8.2183069,
    "Longitude": 80.5116605
  },
  {
    "Id": 103,
    "District": "Anuradhapura",
    "MoH": "Thirappane",
    "Name": "Sethumini Pharmacy",
    "Address": "",
    "Phone": 776681258,
    "WhatsApp": "+94776681258",
    "Viber": "",
    "Email": "NULL",
    "Latitude": 0,
    "Longitude": 0
  },
  {
    "Id": 104,
    "District": "Anuradhapura",
    "MoH": "Thalawa",
    "Name": "Co-Operative Pharmacy",
    "Address": "Kekirawa Road , Eppawala",
    "Phone": 766779208,
    "WhatsApp": "+94766779208",
    "Viber": "",
    "Email": "NULL",
    "Latitude": 34.0459357,
    "Longitude": -81.0437688
  },
  {
    "Id": 105,
    "District": "Anuradhapura",
    "MoH": "Thalawa",
    "Name": "Dilani Stores & Pharmacy",
    "Address": "No 44, Kekirawa Road, Eppawala",
    "Phone": 714948790,
    "WhatsApp": "+94772477405",
    "Viber": "",
    "Email": "NULL",
    "Latitude": 8.2211299,
    "Longitude": 80.359724
  },
  {
    "Id": 106,
    "District": "Anuradhapura",
    "MoH": "Thalawa",
    "Name": "Dinusha Pharmacy Grocery &Trade Center",
    "Address": "Kekirawa Road ,Thalawa",
    "Phone": 715871205,
    "WhatsApp": "+94715871205",
    "Viber": "",
    "Email": "NULL",
    "Latitude": 8.2364716,
    "Longitude": 80.3510437
  },
  {
    "Id": 107,
    "District": "Anuradhapura",
    "MoH": "Thalawa",
    "Name": "M.N. Pharmacy",
    "Address": "Kurunegala Road , Thalawa",
    "Phone": 717747181,
    "WhatsApp": "+94717747181",
    "Viber": "",
    "Email": "NULL",
    "Latitude": 44.9716296,
    "Longitude": -93.2159113
  },
  {
    "Id": 108,
    "District": "Anuradhapura",
    "MoH": "Thalawa",
    "Name": "Pathirana Pharmacy & Grocery,",
    "Address": "No 83/1, Thalawa Road, Eppawala",
    "Phone": 775459710,
    "WhatsApp": "+94775459710",
    "Viber": "",
    "Email": "NULL",
    "Latitude": 8.1439972,
    "Longitude": 80.412005
  },
  {
    "Id": 109,
    "District": "Badulla",
    "MoH": "Badulla",
    "Name": "Apothicaries Pharmacy",
    "Address": "No 229, Lower Street Badulla",
    "Phone": 552222449,
    "WhatsApp": "+94779634050",
    "Viber": "+94779634050",
    "Email": "NULL",
    "Latitude": 6.9858606,
    "Longitude": 81.0599733
  },
  {
    "Id": 110,
    "District": "Badulla",
    "MoH": "Badulla",
    "Name": "Central Pharmacy",
    "Address": "NO.5 Kings Stree Badulla",
    "Phone": 552228021,
    "WhatsApp": "+94775091958",
    "Viber": "+94775091958",
    "Email": "NULL",
    "Latitude": 6.9887899,
    "Longitude": 81.0572838
  },
  {
    "Id": 111,
    "District": "Badulla",
    "MoH": "Badulla",
    "Name": "City Medicals",
    "Address": "25A, Lower Street, Badulla",
    "Phone": 552224304,
    "WhatsApp": "+94714208164",
    "Viber": "+94714208164",
    "Email": "NULL",
    "Latitude": 6.9891931,
    "Longitude": 81.0587033
  },
  {
    "Id": 112,
    "District": "Badulla",
    "MoH": "Badulla",
    "Name": "Osu Sala, Badulla",
    "Address": "CWE Building, Bandarawela Road, Badulla.",
    "Phone": 552229837,
    "WhatsApp": "+94771262583",
    "Viber": "+94771262583",
    "Email": "NULL",
    "Latitude": 6.9908505,
    "Longitude": 81.0543379
  },
  {
    "Id": 113,
    "District": "Badulla",
    "MoH": "Badulla",
    "Name": "Osu Sala, Badulla Bus Stand",
    "Address": "Bus Stand Premises,Badulla.",
    "Phone": 552224700,
    "WhatsApp": "+94713517833",
    "Viber": "+94713517833",
    "Email": "NULL",
    "Latitude": 6.9879886,
    "Longitude": 81.0575735
  },
  {
    "Id": 114,
    "District": "Badulla",
    "MoH": "Badulla",
    "Name": "Perlyn Pharmacy",
    "Address": "No 35, Bandarawela Road, Badulla",
    "Phone": 777801866,
    "WhatsApp": "+94777801866",
    "Viber": "+94777801866",
    "Email": "NULL",
    "Latitude": 6.9908765,
    "Longitude": 81.0540039
  },
  {
    "Id": 115,
    "District": "Badulla",
    "MoH": "Badulla",
    "Name": "Shanthi Medishop",
    "Address": "Badulla",
    "Phone": 771109000,
    "WhatsApp": "+94771109000",
    "Viber": "",
    "Email": "NULL",
    "Latitude": 6.9934009,
    "Longitude": 81.0549815
  },
  {
    "Id": 116,
    "District": "Badulla",
    "MoH": "Badulla",
    "Name": "United Pharmacy",
    "Address": "No 6, Southlane, Badulla",
    "Phone": 552229111,
    "WhatsApp": "+94777623703",
    "Viber": "",
    "Email": "NULL",
    "Latitude": 32.4601497,
    "Longitude": -99.7651608
  },
  {
    "Id": 117,
    "District": "Badulla",
    "MoH": "Badulla",
    "Name": "Vision Pharmacy",
    "Address": "No 17, Bandarawela Road, Badulla",
    "Phone": 773676235,
    "WhatsApp": "+94769438439",
    "Viber": "+94769438439",
    "Email": "NULL",
    "Latitude": 6.9907777,
    "Longitude": 81.0538383
  },
  {
    "Id": 118,
    "District": "Badulla",
    "MoH": "Badulla",
    "Name": "Lanka Chemist",
    "Address": "No 70, Dharmadutha Road, Badulla",
    "Phone": 552222132,
    "WhatsApp": "+94717755993",
    "Viber": "+94717755993",
    "Email": "NULL",
    "Latitude": 6.9880196,
    "Longitude": 81.0594056
  },
  {
    "Id": 119,
    "District": "Badulla",
    "MoH": "Badulla",
    "Name": "Badulla Pharmacy",
    "Address": "No 3, Kings Street, Badulla",
    "Phone": 771887215,
    "WhatsApp": "+94768630220",
    "Viber": "+94768630220",
    "Email": "NULL",
    "Latitude": 6.9907777,
    "Longitude": 81.0538383
  },
  {
    "Id": 120,
    "District": "Badulla",
    "MoH": "Bandarawela",
    "Name": "Central Pharmacy",
    "Address": "No 135, Main Street Bandarawela",
    "Phone": 726616969,
    "WhatsApp": "+94777126849",
    "Viber": "+94777126849",
    "Email": "NULL",
    "Latitude": 6.825878,
    "Longitude": 80.9981576
  },
  {
    "Id": 121,
    "District": "Badulla",
    "MoH": "Bandarawela",
    "Name": "Jeewaya Pharmacy",
    "Address": "No 232, Main Street Bandarawela",
    "Phone": 775189860,
    "WhatsApp": "+94702836201",
    "Viber": "+94702836201",
    "Email": "NULL",
    "Latitude": 6.825878,
    "Longitude": 80.9981576
  },
  {
    "Id": 122,
    "District": "Badulla",
    "MoH": "Bandarawela",
    "Name": "Luckieland Pharmacy",
    "Address": "No.105, Main Street, Bandarawela",
    "Phone": 718394832,
    "WhatsApp": "+94777771129",
    "Viber": "+94777771129",
    "Email": "NULL",
    "Latitude": 6.825878,
    "Longitude": 80.9981576
  },
  {
    "Id": 123,
    "District": "Badulla",
    "MoH": "Bandarawela",
    "Name": "Nava Biolanka Pharmacy",
    "Address": "No 47, Dharmawijaya MW, Bandarawela",
    "Phone": 715125854,
    "WhatsApp": "+94772002819",
    "Viber": "+94772002819",
    "Email": "NULL",
    "Latitude": 6.825878,
    "Longitude": 80.9981576
  },
  {
    "Id": 124,
    "District": "Badulla",
    "MoH": "Bandarawela",
    "Name": "New Manoja Pharmacy",
    "Address": "No. 11, New Bus stand, Bandarawela",
    "Phone": 761353438,
    "WhatsApp": "+94773456352",
    "Viber": "",
    "Email": "NULL",
    "Latitude": 6.82976,
    "Longitude": 80.9883766
  },
  {
    "Id": 125,
    "District": "Badulla",
    "MoH": "Bandarawela",
    "Name": "Samurdhi Pharmacy",
    "Address": "Attampitiya Road, Helamuduna, Bandarawelwa",
    "Phone": 756496580,
    "WhatsApp": "+94777857440",
    "Viber": "+94777857440",
    "Email": "NULL",
    "Latitude": 6.884678,
    "Longitude": 80.9855655
  },
  {
    "Id": 126,
    "District": "Badulla",
    "MoH": "Bandarawela",
    "Name": "Baduriya Pharmacy",
    "Address": "No 43, Main Street, Bandarawela",
    "Phone": 572222359,
    "WhatsApp": "+94723573888",
    "Viber": "+94723573888",
    "Email": "NULL",
    "Latitude": 6.8308386,
    "Longitude": 80.9895513
  },
  {
    "Id": 127,
    "District": "Badulla",
    "MoH": "Diyathalawa",
    "Name": "Osu Sala, Diyathalawa",
    "Address": "New Bus Stand Premises, Main Street, Diyathalawa.",
    "Phone": 572227190,
    "WhatsApp": "+94717907808",
    "Viber": "+94717907808",
    "Email": "NULL",
    "Latitude": 6.806951,
    "Longitude": 80.9572021
  },
  {
    "Id": 128,
    "District": "Badulla",
    "MoH": "Girandurukotte",
    "Name": "Toraana Pharmacy",
    "Address": "Near Hospital, Girandurukotte",
    "Phone": 718105674,
    "WhatsApp": "+94718105674",
    "Viber": "+94718105674",
    "Email": "NULL",
    "Latitude": 7.4629169,
    "Longitude": 81.0174917
  },
  {
    "Id": 129,
    "District": "Badulla",
    "MoH": "Hali-ela",
    "Name": "Attampitiya Pharmacy",
    "Address": "No 08, Badulla Road, Attampitiya",
    "Phone": 723740141,
    "WhatsApp": "+94767180737",
    "Viber": "",
    "Email": "NULL",
    "Latitude": 6.9552623,
    "Longitude": 80.9252554
  },
  {
    "Id": 130,
    "District": "Badulla",
    "MoH": "Hali-ela",
    "Name": "Dilinza Pharmacy",
    "Address": "No 82, Badulla Road, Hali-ela",
    "Phone": 714165381,
    "WhatsApp": "+94714165381",
    "Viber": "+94714165381",
    "Email": "NULL",
    "Latitude": 6.9544706,
    "Longitude": 81.0318156
  },
  {
    "Id": 131,
    "District": "Badulla",
    "MoH": "Haputale",
    "Name": "Aiyappan Pharmacy",
    "Address": "No12, Shopping Complex, Haputhale",
    "Phone": 774928637,
    "WhatsApp": "+94774928637",
    "Viber": "+94774928637",
    "Email": "NULL",
    "Latitude": 6.7654136,
    "Longitude": 80.9525655
  },
  {
    "Id": 132,
    "District": "Badulla",
    "MoH": "Haputale",
    "Name": "City Pharmacy",
    "Address": "No 05, Dambetenna Road, Haputhale",
    "Phone": 711698723,
    "WhatsApp": "+94711698723",
    "Viber": "+94779585306",
    "Email": "NULL",
    "Latitude": 6.7654136,
    "Longitude": 80.9525655
  },
  {
    "Id": 133,
    "District": "Badulla",
    "MoH": "Haputale",
    "Name": "Thilakna Pharmacy",
    "Address": "Main Street, Diyathalawa",
    "Phone": 716229210,
    "WhatsApp": "+94702882829",
    "Viber": "+94716229210",
    "Email": "NULL",
    "Latitude": 6.806951,
    "Longitude": 80.9572021
  },
  {
    "Id": 134,
    "District": "Badulla",
    "MoH": "Haputale",
    "Name": "Thilakna Pharmacy",
    "Address": "Main Street, Diythalawa",
    "Phone": 716229210,
    "WhatsApp": "+94716229210",
    "Viber": "",
    "Email": "NULL",
    "Latitude": 6.806951,
    "Longitude": 80.9572021
  },
  {
    "Id": 135,
    "District": "Badulla",
    "MoH": "Haputale",
    "Name": "Suwana Pharmacy",
    "Address": "Main Street Diyathalawa",
    "Phone": 718307590,
    "WhatsApp": "+94762660879",
    "Viber": "+94762660879",
    "Email": "NULL",
    "Latitude": 6.806951,
    "Longitude": 80.9572021
  },
  {
    "Id": 136,
    "District": "Badulla",
    "MoH": "Haputale",
    "Name": "Hijra Pharmacy",
    "Address": "No. 09, Dambethenna Rd., Haputale",
    "Phone": 723011558,
    "WhatsApp": "+94723011558",
    "Viber": "",
    "Email": "NULL",
    "Latitude": 6.7654136,
    "Longitude": 80.9525655
  },
  {
    "Id": 137,
    "District": "Badulla",
    "MoH": "Kandekatiya",
    "Name": "Gayani Pharmacy",
    "Address": "Kandaketiya Junction, Kandekatiya",
    "Phone": 773724300,
    "WhatsApp": "+94773724300",
    "Viber": "+94773724300",
    "Email": "NULL",
    "Latitude": 7.2100496,
    "Longitude": 81.0136106
  },
  {
    "Id": 138,
    "District": "Badulla",
    "MoH": "Mahiyanganaya",
    "Name": "City Pharmacy",
    "Address": "Badulla Road, Mahiyangana",
    "Phone": 552258003,
    "WhatsApp": "+94727900599",
    "Viber": "+94727900599",
    "Email": "NULL",
    "Latitude": 7.3385919,
    "Longitude": 80.9926265
  },
  {
    "Id": 139,
    "District": "Badulla",
    "MoH": "Mahiyanganaya",
    "Name": "City Pharmacy",
    "Address": "Badulla Road, Mahiyanganaya",
    "Phone": 766743072,
    "WhatsApp": "+94774928637",
    "Viber": "",
    "Email": "NULL",
    "Latitude": 7.3385919,
    "Longitude": 80.9926265
  },
  {
    "Id": 140,
    "District": "Badulla",
    "MoH": "Mahiyanganaya",
    "Name": "Prasanna Pharmacy",
    "Address": "No.12, Near Bus Stand, Mahiyanganaya.",
    "Phone": 552258503,
    "WhatsApp": "+94777872498",
    "Viber": "+94777872498",
    "Email": "NULL",
    "Latitude": 7.3383239,
    "Longitude": 80.9924236
  },
  {
    "Id": 141,
    "District": "Badulla",
    "MoH": "Mahiyanganaya",
    "Name": "Shanthi Pharmacy & Channel Centre",
    "Address": "No 35, Kandy Rd, New Town, Mahiyanganaya",
    "Phone": 552257373,
    "WhatsApp": "+94772762018",
    "Viber": "+94772762018",
    "Email": "NULL",
    "Latitude": 7.339242,
    "Longitude": 80.9905099
  },
  {
    "Id": 142,
    "District": "Badulla",
    "MoH": "Mahiyanganaya",
    "Name": "Suwamedura Pharmacy",
    "Address": "Near Hospital Mahiyanganaya",
    "Phone": 552258399,
    "WhatsApp": "+94702798070",
    "Viber": "+94702798070",
    "Email": "NULL",
    "Latitude": 7.3316102,
    "Longitude": 81.0036821
  },
  {
    "Id": 143,
    "District": "Badulla",
    "MoH": "Mahiyanganaya",
    "Name": "Tharani Pharmacy",
    "Address": "No 7, Private Bus Stand, Mahiyanganaya",
    "Phone": 552258362,
    "WhatsApp": "+94763900161",
    "Viber": "+94763900161",
    "Email": "NULL",
    "Latitude": 7.3316102,
    "Longitude": 81.0036821
  },
  {
    "Id": 144,
    "District": "Badulla",
    "MoH": "Passara",
    "Name": "Calistro Pharmay",
    "Address": "No 23/1, Main Street Passara",
    "Phone": 716088939,
    "WhatsApp": "+94716088939",
    "Viber": "",
    "Email": "NULL",
    "Latitude": 6.9349732,
    "Longitude": 81.1523718
  },
  {
    "Id": 145,
    "District": "Badulla",
    "MoH": "Passara",
    "Name": "Reegal Pharmacy",
    "Address": "No 360, Main Street, Passara",
    "Phone": 770799589,
    "WhatsApp": "+94770799589",
    "Viber": "+94770799589",
    "Email": "NULL",
    "Latitude": 6.9349088,
    "Longitude": 81.1526976
  },
  {
    "Id": 146,
    "District": "Badulla",
    "MoH": "Passara",
    "Name": "DJ PharmACY",
    "Address": "No 219A, Main Street Passara",
    "Phone": 773946904,
    "WhatsApp": "+94773946904",
    "Viber": "+94773946904",
    "Email": "NULL",
    "Latitude": 6.9349088,
    "Longitude": 81.1526976
  },
  {
    "Id": 147,
    "District": "Badulla",
    "MoH": "Welimada",
    "Name": "Godakubura Pharmacy",
    "Address": "No 146,N, Elita Road, Welimada",
    "Phone": 716807904,
    "WhatsApp": "+94718351964",
    "Viber": "+94718351964",
    "Email": "NULL",
    "Latitude": 6.9019072,
    "Longitude": 80.9079245
  },
  {
    "Id": 148,
    "District": "Badulla",
    "MoH": "Welimada",
    "Name": "Lal Pharmacy",
    "Address": "No 08, Hemapala Munidasa Road, Welimada",
    "Phone": 771499011,
    "WhatsApp": "+94777305343",
    "Viber": "+94777305343",
    "Email": "NULL",
    "Latitude": 6.9053921,
    "Longitude": 80.9119053
  },
  {
    "Id": 149,
    "District": "Badulla",
    "MoH": "Welimada",
    "Name": "Sampath Pharmacy",
    "Address": "No3, Erabadda Road, Kappetipola",
    "Phone": 768227940,
    "WhatsApp": "+94772944200",
    "Viber": "+94772944200",
    "Email": "NULL",
    "Latitude": 6.8852179,
    "Longitude": 80.8758289
  },
  {
    "Id": 150,
    "District": "Badulla",
    "MoH": "Welimada",
    "Name": "Mahajana Pharmacy",
    "Address": "No 83, Nuwaraeliya Road, Welimada",
    "Phone": 572244881,
    "WhatsApp": "+94761258875",
    "Viber": "+94761258875",
    "Email": "NULL",
    "Latitude": 6.9052847,
    "Longitude": 80.9109237
  },
  {
    "Id": 151,
    "District": "Badulla",
    "MoH": "Welimada",
    "Name": "New Sumedha Pharamacy",
    "Address": "Welimada Road, Boralanda",
    "Phone": 768841718,
    "WhatsApp": "+94752829526",
    "Viber": "+94752829526",
    "Email": "NULL",
    "Latitude": 6.8279044,
    "Longitude": 80.8945014
  },
  {
    "Id": 152,
    "District": "Badulla",
    "MoH": "Welimada",
    "Name": "Bogahakubura Pharmacy",
    "Address": "No 5, Shopping Complex,Bogahakubura",
    "Phone": 717008388,
    "WhatsApp": "+94717008388",
    "Viber": "",
    "Email": "NULL",
    "Latitude": 6.8632985,
    "Longitude": 80.8737539
  },
  {
    "Id": 153,
    "District": "Badulla",
    "MoH": "Ella",
    "Name": "Somasiri Super Pharmacy",
    "Address": "Ella Town, Ella",
    "Phone": 773790501,
    "WhatsApp": "+94773790501",
    "Viber": "+94773790501",
    "Email": "NULL",
    "Latitude": 6.8666988,
    "Longitude": 81.046553
  },
  {
    "Id": 154,
    "District": "Badulla",
    "MoH": "Ella",
    "Name": "Sri Sai Medicals",
    "Address": "Nawelagama Road, Ballaketuwa",
    "Phone": 779807574,
    "WhatsApp": "+94779807574",
    "Viber": "+94779807574",
    "Email": "NULL",
    "Latitude": 6.8597938,
    "Longitude": 81.0952101
  },
  {
    "Id": 155,
    "District": "Badulla",
    "MoH": "Ella",
    "Name": "Lakchana Pharmacy",
    "Address": "Badulla Road, Demodara",
    "Phone": 772224322,
    "WhatsApp": "+94772224322",
    "Viber": "+94772224322",
    "Email": "NULL",
    "Latitude": 6.9019597,
    "Longitude": 81.0578339
  },
  {
    "Id": 156,
    "District": "Badulla",
    "MoH": "Haldummulla",
    "Name": "M.G.Laksmi Pharmacy",
    "Address": "No 37, Main Street, Koslanda",
    "Phone": 778741365,
    "WhatsApp": "+94783691465",
    "Viber": "+94772147595",
    "Email": "NULL",
    "Latitude": 6.7431234,
    "Longitude": 81.0178369
  },
  {
    "Id": 157,
    "District": "Badulla",
    "MoH": "Meegahakiula",
    "Name": "Induwara Pharmacy",
    "Address": "NO 02, Kandy Road, Meegahakivula",
    "Phone": 777889071,
    "WhatsApp": "+94769148882",
    "Viber": "+94769148882",
    "Email": "NULL",
    "Latitude": 6.9986936,
    "Longitude": 79.9481568
  },
  {
    "Id": 158,
    "District": "Badulla",
    "MoH": "Lunugala",
    "Name": "Shopital Pharmacy",
    "Address": "No 97/1, Main Street, Lunugala",
    "Phone": 718928156,
    "WhatsApp": "+94719898914",
    "Viber": "+94719898914",
    "Email": "NULL",
    "Latitude": 7.0403676,
    "Longitude": 81.2016737
  },
  {
    "Id": 159,
    "District": "Badulla",
    "MoH": "Uwa Paranagama",
    "Name": "Suwan Pharmacy",
    "Address": "Lunuwaththa, Uwa Paranagama",
    "Phone": 713680112,
    "WhatsApp": "+94713680812",
    "Viber": "+94713680812",
    "Email": "NULL",
    "Latitude": 6.9552623,
    "Longitude": 80.9252554
  },
  {
    "Id": 160,
    "District": "Badulla",
    "MoH": "Rideemaliyadda",
    "Name": "Apsara Pharmacy",
    "Address": "Andaulpotha, Uraniya",
    "Phone": 778669198,
    "WhatsApp": "+94778669198",
    "Viber": "+94779973938",
    "Email": "NULL",
    "Latitude": 7.2621251,
    "Longitude": 81.0812125
  },
  {
    "Id": 161,
    "District": "Batticaloa",
    "MoH": "Arayampathy",
    "Name": "K.R.Medical",
    "Address": "Main Road,Arayampathy",
    "Phone": 773763481,
    "WhatsApp": "+94767868103",
    "Viber": "",
    "Email": "NULL",
    "Latitude": 7.6569501,
    "Longitude": 81.7404134
  },
  {
    "Id": 162,
    "District": "Batticaloa",
    "MoH": "Batticaloa",
    "Name": "Batticaloa Medical",
    "Address": "94, Bar Road, Batticaloa",
    "Phone": 652224400,
    "WhatsApp": "+94777142268",
    "Viber": "",
    "Email": "NULL",
    "Latitude": 7.7218583,
    "Longitude": 81.7007591
  },
  {
    "Id": 163,
    "District": "Batticaloa",
    "MoH": "Batticaloa",
    "Name": "S.K. Siranjeevi Pharmacy",
    "Address": "570D, Sinna Urani,Trinco Rd, Batticaloa",
    "Phone": 652051151,
    "WhatsApp": "+94777003668",
    "Viber": "+94777003668",
    "Email": "NULL",
    "Latitude": 7.7166032,
    "Longitude": 81.6988923
  },
  {
    "Id": 164,
    "District": "Batticaloa",
    "MoH": "Batticaloa",
    "Name": "Sakthi Medical",
    "Address": "118A, Hospital Road, Batticaloa",
    "Phone": 652228548,
    "WhatsApp": "",
    "Viber": "+94779502087",
    "Email": "NULL",
    "Latitude": 7.7080971,
    "Longitude": 81.6897892
  },
  {
    "Id": 165,
    "District": "Batticaloa",
    "MoH": "Batticaloa",
    "Name": "Tip Top Pharmacy",
    "Address": "20, Central Road, Batticaloa",
    "Phone": 652222221,
    "WhatsApp": "+94772072722",
    "Viber": "+94707070666",
    "Email": "NULL",
    "Latitude": 7.7107704,
    "Longitude": 81.6963261
  },
  {
    "Id": 166,
    "District": "Batticaloa",
    "MoH": "Batticaloa",
    "Name": "Vision Pharma",
    "Address": "59C, Koolavadi Road, Batticaloa",
    "Phone": 779123494,
    "WhatsApp": "+94750523075",
    "Viber": "+94779123494",
    "Email": "NULL",
    "Latitude": 7.7317511,
    "Longitude": 81.6947148
  },
  {
    "Id": 167,
    "District": "Batticaloa",
    "MoH": "Chenkaladi",
    "Name": "Eastern Medical",
    "Address": "Main Street, Chenkaladi",
    "Phone": 652240450,
    "WhatsApp": "+94752323191",
    "Viber": "+94752323191",
    "Email": "NULL",
    "Latitude": 7.7858571,
    "Longitude": 81.5898016
  },
  {
    "Id": 168,
    "District": "Batticaloa",
    "MoH": "Eravur",
    "Name": "Alif Medicare",
    "Address": "Maccamadi Road,Eravur",
    "Phone": 772247157,
    "WhatsApp": "+94772247157",
    "Viber": "+94772247157",
    "Email": "NULL",
    "Latitude": 7.7768972,
    "Longitude": 81.6042028
  },
  {
    "Id": 169,
    "District": "Batticaloa",
    "MoH": "Eravur",
    "Name": "Ifham Pharmacy",
    "Address": "271A, Main Street, Eravur",
    "Phone": 652241777,
    "WhatsApp": "+94778214548",
    "Viber": "",
    "Email": "NULL",
    "Latitude": 7.773132,
    "Longitude": 81.6094175
  },
  {
    "Id": 170,
    "District": "Batticaloa",
    "MoH": "Eravur",
    "Name": "New Fanoona Pharmacy",
    "Address": "AKM Road, Eravur-3",
    "Phone": 652241071,
    "WhatsApp": "+94772364264",
    "Viber": "",
    "Email": "NULL",
    "Latitude": 7.7776981,
    "Longitude": 81.6048601
  },
  {
    "Id": 171,
    "District": "Batticaloa",
    "MoH": "Eravur",
    "Name": "New Hafees Medical",
    "Address": "18, Punnaikudah Road, Eravur",
    "Phone": 652240434,
    "WhatsApp": "+94773815318",
    "Viber": "",
    "Email": "NULL",
    "Latitude": 7.776953,
    "Longitude": 81.6043264
  },
  {
    "Id": 172,
    "District": "Batticaloa",
    "MoH": "Eravur",
    "Name": "United Pharmacy",
    "Address": "37, Main Street,Eravur",
    "Phone": "000000000-",
    "WhatsApp": "+94773019611",
    "Viber": "",
    "Email": "NULL",
    "Latitude": 7.7768972,
    "Longitude": 81.6042028
  },
  {
    "Id": 173,
    "District": "Batticaloa",
    "MoH": "Kaluwanchikudy",
    "Name": "Gayathri Pharmacy",
    "Address": "Hospital Road, Kaluwanchikudy",
    "Phone": 652250036,
    "WhatsApp": "+94765352535",
    "Viber": "",
    "Email": "NULL",
    "Latitude": 7.517668,
    "Longitude": 81.7851532
  },
  {
    "Id": 174,
    "District": "Batticaloa",
    "MoH": "Kaluwanchikudy",
    "Name": "Selva Pharmacy",
    "Address": "Main Street, Kaluwanchikudy",
    "Phone": 652251960,
    "WhatsApp": "+94752264011",
    "Viber": "+94752264011",
    "Email": "NULL",
    "Latitude": 7.5176524,
    "Longitude": 81.7873627
  },
  {
    "Id": 175,
    "District": "Batticaloa",
    "MoH": "Kaluwanchikudy",
    "Name": "Sheron Pharmacy & Baby care",
    "Address": "Main Street, Periya Kallar",
    "Phone": 771792840,
    "WhatsApp": "+94778367504",
    "Viber": "+94778367504",
    "Email": "NULL",
    "Latitude": 7.4676942,
    "Longitude": 81.814238
  },
  {
    "Id": 176,
    "District": "Batticaloa",
    "MoH": "Kattankudy",
    "Name": "Boots Pharmacy",
    "Address": "66,Main Road,Kattankudy-03",
    "Phone": 775025874,
    "WhatsApp": "+94775025874",
    "Viber": "",
    "Email": "NULL",
    "Latitude": 7.6812404,
    "Longitude": 81.7284691
  },
  {
    "Id": 177,
    "District": "Batticaloa",
    "MoH": "Kattankudy",
    "Name": "Central Pharmacy",
    "Address": "288, Beach Road, Kattankudy",
    "Phone": 652059770,
    "WhatsApp": "",
    "Viber": "",
    "Email": "NULL",
    "Latitude": 7.6829679,
    "Longitude": 81.734737
  },
  {
    "Id": 178,
    "District": "Batticaloa",
    "MoH": "Kattankudy",
    "Name": "Jusla Pharmacy",
    "Address": "No.158, Main Street, Kattankudy-06",
    "Phone": 766755042,
    "WhatsApp": "+94766755042",
    "Viber": "",
    "Email": "NULL",
    "Latitude": 7.6766685,
    "Longitude": 81.7309047
  },
  {
    "Id": 179,
    "District": "Batticaloa",
    "MoH": "Kattankudy",
    "Name": "New Life Pharmacy",
    "Address": "116A,AHM.Fowzy Mawaha, New Katankudy-02",
    "Phone": 771755645,
    "WhatsApp": "+94771755645",
    "Viber": "",
    "Email": "NULL",
    "Latitude": 7.6853695,
    "Longitude": 81.7260123
  },
  {
    "Id": 180,
    "District": "Batticaloa",
    "MoH": "Kattankudy",
    "Name": "Rizzly Pharmacy",
    "Address": "Main Street, Kattankudy",
    "Phone": 652246999,
    "WhatsApp": "+94773920823",
    "Viber": "+94773920823",
    "Email": "NULL",
    "Latitude": 7.6864024,
    "Longitude": 81.7255376
  },
  {
    "Id": 181,
    "District": "Batticaloa",
    "MoH": "Kattankudy",
    "Name": "Family pharmacy",
    "Address": "25,Main st,Kattankudy",
    "Phone": 777800377,
    "WhatsApp": "+94774004578",
    "Viber": "",
    "Email": "NULL",
    "Latitude": 7.6853695,
    "Longitude": 81.7260123
  },
  {
    "Id": 182,
    "District": "Batticaloa",
    "MoH": "Kiran",
    "Name": "Santhively Channeling Centre",
    "Address": "Main Street, Santhively",
    "Phone": 652058814,
    "WhatsApp": "",
    "Viber": "",
    "Email": "NULL",
    "Latitude": 7.8471034,
    "Longitude": 81.5541579
  },
  {
    "Id": 183,
    "District": "Batticaloa",
    "MoH": "Oddamavady",
    "Name": "Mikka Medical",
    "Address": "19, Grand Mosque Rd, Oddamawadi-1",
    "Phone": 652257050,
    "WhatsApp": "+94774930340",
    "Viber": "+94774930340",
    "Email": "NULL",
    "Latitude": 7.9031076,
    "Longitude": 81.5239846
  },
  {
    "Id": 184,
    "District": "Batticaloa",
    "MoH": "Oddamavady",
    "Name": "Zattra Pharmacy",
    "Address": "Jummah Mosque Rd, Oddamawadi-1",
    "Phone": 766689060,
    "WhatsApp": "+94766689060",
    "Viber": "",
    "Email": "NULL",
    "Latitude": 7.9144407,
    "Longitude": 81.5206887
  },
  {
    "Id": 185,
    "District": "Batticaloa",
    "MoH": "Oddamavady",
    "Name": "MCR pharmacy",
    "Address": "Market Road Meeravodai",
    "Phone": 752012888,
    "WhatsApp": "+94752012888",
    "Viber": "+94752012888",
    "Email": "NULL",
    "Latitude": 7.9028628,
    "Longitude": 81.5191297
  },
  {
    "Id": 186,
    "District": "Batticaloa",
    "MoH": "Paddipalai",
    "Name": "Sivan pharmacy",
    "Address": "Main st,Kokkaddisolai",
    "Phone": 778900386,
    "WhatsApp": "+94753800386",
    "Viber": "",
    "Email": "NULL",
    "Latitude": 0,
    "Longitude": 0
  },
  {
    "Id": 187,
    "District": "Batticaloa",
    "MoH": "Valaichenai",
    "Name": "GoodWill Hospital Pharmacy",
    "Address": "Main Street, Valaichenai.",
    "Phone": 776616677,
    "WhatsApp": "+94750634001",
    "Viber": "+94750634001",
    "Email": "NULL",
    "Latitude": 7.9213276,
    "Longitude": 81.5246705
  },
  {
    "Id": 188,
    "District": "Batticaloa",
    "MoH": "Valaichenai",
    "Name": "Seemass Pharmacy",
    "Address": "MPCS Road, Semmanodai, Valaichenai",
    "Phone": 652258800,
    "WhatsApp": "+94771454548",
    "Viber": "+94771454548",
    "Email": "NULL",
    "Latitude": 7.9075313,
    "Longitude": 81.5248739
  },
  {
    "Id": 189,
    "District": "Batticaloa",
    "MoH": "Vellavely",
    "Name": "Harshigashini Pharmacy",
    "Address": "Main Street, Weeranchenai, Palugamam",
    "Phone": 757016286,
    "WhatsApp": "",
    "Viber": "",
    "Email": "NULL",
    "Latitude": 0,
    "Longitude": 0
  },
  {
    "Id": 190,
    "District": "Colombo",
    "MoH": "Avissawella",
    "Name": "Gagana Pharmacy",
    "Address": "No.06, Yatiyanthota Road, Avissawella",
    "Phone": 362234337,
    "WhatsApp": "+94760741668",
    "Viber": "+94760741668",
    "Email": "NULL",
    "Latitude": 6.9529386,
    "Longitude": 80.2125941
  },
  {
    "Id": 191,
    "District": "Colombo",
    "MoH": "Avissawella",
    "Name": "Osu Sala, Avissawella",
    "Address": "40, Colombo Rd, Avissawella.",
    "Phone": 362222501,
    "WhatsApp": "+94777214836",
    "Viber": "+94777214836",
    "Email": "NULL",
    "Latitude": 6.8779805,
    "Longitude": 79.8601185
  },
  {
    "Id": 192,
    "District": "Colombo",
    "MoH": "Battaramulla",
    "Name": "Elite Pharmacy",
    "Address": "No.490/A, Thalangama North, Battaramulla",
    "Phone": 112788197,
    "WhatsApp": "",
    "Viber": "",
    "Email": "NULL",
    "Latitude": 6.9168782,
    "Longitude": 79.9317302
  },
  {
    "Id": 193,
    "District": "Colombo",
    "MoH": "Battaramulla",
    "Name": "Healthguard Pharmacies, Thalawathugoda",
    "Address": "708/A, Madiwela Road, Thalawathugoda",
    "Phone": 711528800,
    "WhatsApp": "+94764477666",
    "Viber": "",
    "Email": "NULL",
    "Latitude": 6.874492,
    "Longitude": 79.9334228
  },
  {
    "Id": 194,
    "District": "Colombo",
    "MoH": "Battaramulla",
    "Name": "Nawala Chemist",
    "Address": "No.565, Nawala Road, Koswattha, Rajagiriya",
    "Phone": 777218469,
    "WhatsApp": "",
    "Viber": "",
    "Email": "NULL",
    "Latitude": 6.9015408,
    "Longitude": 79.8939021
  },
  {
    "Id": 195,
    "District": "Colombo",
    "MoH": "Battaramulla",
    "Name": "Reward Pharmacy & Grocery",
    "Address": "977/6c, Pannipitya Road, Palawatta, Battaramulla",
    "Phone": 714433970,
    "WhatsApp": "",
    "Viber": "",
    "Email": "NULL",
    "Latitude": 6.8877528,
    "Longitude": 79.9322211
  },
  {
    "Id": 196,
    "District": "Colombo",
    "MoH": "Battaramulla",
    "Name": "Suwahasa",
    "Address": "No: 285, Pannipitiya Road,Pelawatta",
    "Phone": 717339173,
    "WhatsApp": "+94717339173",
    "Viber": "+94717339173",
    "Email": "NULL",
    "Latitude": 6.8933716,
    "Longitude": 79.9273893
  },
  {
    "Id": 197,
    "District": "Colombo",
    "MoH": "Battaramulla",
    "Name": "New Koswatta Chemist",
    "Address": "250/B, Kaduwela Road, Koswatta",
    "Phone": 112791717,
    "WhatsApp": "+94777137431",
    "Viber": "+94777137431",
    "Email": "NULL",
    "Latitude": 6.906092,
    "Longitude": 79.9286786
  },
  {
    "Id": 198,
    "District": "Colombo",
    "MoH": "Battaramulla",
    "Name": "Isuru Pharmacy",
    "Address": "107B, Main Street, Battaramulla",
    "Phone": 716225095,
    "WhatsApp": "+94716225095",
    "Viber": "+94716225095",
    "Email": "NULL",
    "Latitude": 6.9019207,
    "Longitude": 79.9171109
  },
  {
    "Id": 199,
    "District": "Colombo",
    "MoH": "Battaramulla",
    "Name": "Nawala Pharma",
    "Address": "No. 509/2, Nawala Road, Koswaththa, Rajagiriya",
    "Phone": 112873758,
    "WhatsApp": "+94777280001",
    "Viber": "+94776064904",
    "Email": "NULL",
    "Latitude": 6.873642,
    "Longitude": 79.8912455
  },
  {
    "Id": 200,
    "District": "Colombo",
    "MoH": "CMC",
    "Name": "Apco Pharmacy",
    "Address": "No.10, Pangngananda Mawatha, Colombo 15",
    "Phone": 777888073,
    "WhatsApp": "",
    "Viber": "",
    "Email": "NULL",
    "Latitude": 6.963227,
    "Longitude": 79.8710886
  },
  {
    "Id": 201,
    "District": "Colombo",
    "MoH": "CMC",
    "Name": "B well Pharmacy",
    "Address": "164,Galle Rd, Col 04",
    "Phone": 773470446,
    "WhatsApp": "+94773470446",
    "Viber": "+94773470446",
    "Email": "NULL",
    "Latitude": 6.8899162,
    "Longitude": 79.8566919
  },
  {
    "Id": 202,
    "District": "Colombo",
    "MoH": "CMC",
    "Name": "Bambalapitiya Pharmacy",
    "Address": "No 21, Galle Road, Colombo 4",
    "Phone": 112591822,
    "WhatsApp": "",
    "Viber": "",
    "Email": "NULL",
    "Latitude": 6.8860774,
    "Longitude": 79.8599494
  },
  {
    "Id": 203,
    "District": "Colombo",
    "MoH": "CMC",
    "Name": "Ceylon Medical",
    "Address": "4 B, Fusseis Lane, Wellawatha, Colombo 6",
    "Phone": 115529767,
    "WhatsApp": "+94778864220",
    "Viber": "",
    "Email": "NULL",
    "Latitude": 6.8739368,
    "Longitude": 79.8619339
  },
  {
    "Id": 204,
    "District": "Colombo",
    "MoH": "CMC",
    "Name": "Elvitigala Pharmacy",
    "Address": "No.286, Nagalagam Street, Colombo-14.",
    "Phone": 777780850,
    "WhatsApp": "+94777780850",
    "Viber": "",
    "Email": "NULL",
    "Latitude": 6.9068771,
    "Longitude": 79.895433
  },
  {
    "Id": 205,
    "District": "Colombo",
    "MoH": "CMC",
    "Name": "Friends Pharmacy",
    "Address": "32/24, Highlevel Road, Kirulapone",
    "Phone": 112512061,
    "WhatsApp": "+94712137671",
    "Viber": "+94711236725",
    "Email": "NULL",
    "Latitude": 6.8732973,
    "Longitude": 79.8821196
  },
  {
    "Id": 206,
    "District": "Colombo",
    "MoH": "CMC",
    "Name": "Guardian Drugs Pvt Ltd",
    "Address": "41, Hampdon Lane, Col 6",
    "Phone": 112366691,
    "WhatsApp": "+94777823149",
    "Viber": "+94777823149",
    "Email": "NULL",
    "Latitude": 6.8752335,
    "Longitude": 79.8658926
  },
  {
    "Id": 207,
    "District": "Colombo",
    "MoH": "CMC",
    "Name": "Health Guard (Pvt) Ltd",
    "Address": "",
    "Phone": 764477888,
    "WhatsApp": "+94764477888",
    "Viber": "+94764477888",
    "Email": "NULL",
    "Latitude": 40.7563854,
    "Longitude": -73.8731883
  },
  {
    "Id": 208,
    "District": "Colombo",
    "MoH": "CMC",
    "Name": "Healthguard Pharmacies, Colombo 03",
    "Address": "415, Galle Road, Colombo 03",
    "Phone": 702105841,
    "WhatsApp": "+94764477666",
    "Viber": "",
    "Email": "NULL",
    "Latitude": 6.9020293,
    "Longitude": 79.8528223
  },
  {
    "Id": 209,
    "District": "Colombo",
    "MoH": "CMC",
    "Name": "Healthguard Pharmacies, Colombo 07",
    "Address": "139/A, Dharmapala Mawatha, Colombo 07",
    "Phone": 750968608,
    "WhatsApp": "+94764477666",
    "Viber": "",
    "Email": "NULL",
    "Latitude": 6.9145877,
    "Longitude": 79.8591049
  },
  {
    "Id": 210,
    "District": "Colombo",
    "MoH": "CMC",
    "Name": "Healthguard Pharmacies, Kirula",
    "Address": "229, Kirula Road, Colombo 05",
    "Phone": 771359306,
    "WhatsApp": "+94764477666",
    "Viber": "",
    "Email": "NULL",
    "Latitude": 6.892562,
    "Longitude": 79.875553
  },
  {
    "Id": 211,
    "District": "Colombo",
    "MoH": "CMC",
    "Name": "Healthguard Pharmacies, Maitland Crescent",
    "Address": "41, Maitland Crescent, Colombo 7",
    "Phone": 769362321,
    "WhatsApp": "+94764477666",
    "Viber": "",
    "Email": "NULL",
    "Latitude": 6.9081574,
    "Longitude": 79.8650449
  },
  {
    "Id": 212,
    "District": "Colombo",
    "MoH": "CMC",
    "Name": "Healthguard Pharmacies, Shangri La",
    "Address": "Shangri La Shopping Mall,1A, Center Rd, Colombo",
    "Phone": 750121139,
    "WhatsApp": "+94764477666",
    "Viber": "",
    "Email": "NULL",
    "Latitude": 6.9272545,
    "Longitude": 79.8450774
  },
  {
    "Id": 213,
    "District": "Colombo",
    "MoH": "CMC",
    "Name": "Healthguard Pharmacies, Thimbirigasyaya",
    "Address": "391, Thimbirigasyaya Road, Colombo 05",
    "Phone": 719106969,
    "WhatsApp": "+94764477666",
    "Viber": "",
    "Email": "NULL",
    "Latitude": 6.8958681,
    "Longitude": 79.8726117
  },
  {
    "Id": 214,
    "District": "Colombo",
    "MoH": "CMC",
    "Name": "Healthnet International (Pvt) Ltd.",
    "Address": "30/4, Park Road, Colombo 5.",
    "Phone": 776281957,
    "WhatsApp": "+94777357671",
    "Viber": "",
    "Email": "NULL",
    "Latitude": 6.8854311,
    "Longitude": 79.8689805
  },
  {
    "Id": 215,
    "District": "Colombo",
    "MoH": "CMC",
    "Name": "Highlevel Pharmacy",
    "Address": "",
    "Phone": 775432206,
    "WhatsApp": "+94775432206",
    "Viber": "",
    "Email": "NULL",
    "Latitude": 33.0418001,
    "Longitude": -97.0418407
  },
  {
    "Id": 216,
    "District": "Colombo",
    "MoH": "CMC",
    "Name": "Jampattah Pharmacy",
    "Address": "No.113, Jampattah Street, Colombo 13",
    "Phone": 713383433,
    "WhatsApp": "",
    "Viber": "",
    "Email": "NULL",
    "Latitude": 6.9465872,
    "Longitude": 79.8571244
  },
  {
    "Id": 217,
    "District": "Colombo",
    "MoH": "CMC",
    "Name": "Kamazu Pvt Ltd",
    "Address": "135, College St, Off 16th Lane, Kotahena",
    "Phone": 112437415,
    "WhatsApp": "+94712347827",
    "Viber": "",
    "Email": "NULL",
    "Latitude": 6.9555238,
    "Longitude": 79.8616007
  },
  {
    "Id": 218,
    "District": "Colombo",
    "MoH": "CMC",
    "Name": "Kirula Pharmacy (Pvt) Ltd",
    "Address": "136/4 high level rd colombo",
    "Phone": 714105257,
    "WhatsApp": "+94714105257",
    "Viber": "+94714105257",
    "Email": "NULL",
    "Latitude": 6.8785614,
    "Longitude": 79.8755988
  },
  {
    "Id": 219,
    "District": "Colombo",
    "MoH": "CMC",
    "Name": "Kotahena Chemist",
    "Address": "No.58, Bonjean Road, Colombo 13",
    "Phone": 766025656,
    "WhatsApp": "",
    "Viber": "",
    "Email": "NULL",
    "Latitude": 6.9481687,
    "Longitude": 79.8623151
  },
  {
    "Id": 220,
    "District": "Colombo",
    "MoH": "CMC",
    "Name": "Madanayaka Pharmacy",
    "Address": "",
    "Phone": 770211391,
    "WhatsApp": "",
    "Viber": "",
    "Email": "NULL",
    "Latitude": 6.9350383,
    "Longitude": 79.8528193
  },
  {
    "Id": 221,
    "District": "Colombo",
    "MoH": "CMC",
    "Name": "Mangal Medicals",
    "Address": "No.19, Grand Pass Road, Colombo 14",
    "Phone": 778002342,
    "WhatsApp": "",
    "Viber": "",
    "Email": "NULL",
    "Latitude": 6.9420031,
    "Longitude": 79.8651436
  },
  {
    "Id": 222,
    "District": "Colombo",
    "MoH": "CMC",
    "Name": "Markss HLC (Pvt) Ltd",
    "Address": "",
    "Phone": 719326998,
    "WhatsApp": "+94715731941",
    "Viber": "+94715731941",
    "Email": "NULL",
    "Latitude": 6.8873869,
    "Longitude": 79.8860706
  },
  {
    "Id": 223,
    "District": "Colombo",
    "MoH": "CMC",
    "Name": "Maxx Pharmacy",
    "Address": "No.49, Olcott Mawatha, Colombo 11",
    "Phone": 773549639,
    "WhatsApp": "",
    "Viber": "",
    "Email": "NULL",
    "Latitude": 6.9342385,
    "Longitude": 79.8500614
  },
  {
    "Id": 224,
    "District": "Colombo",
    "MoH": "CMC",
    "Name": "Medimax Pharmacy",
    "Address": "45,Highlevel Rd, Kirulapona",
    "Phone": 117209970,
    "WhatsApp": "+94779230598",
    "Viber": "+94779230598",
    "Email": "NULL",
    "Latitude": 6.8787819,
    "Longitude": 79.8742306
  },
  {
    "Id": 225,
    "District": "Colombo",
    "MoH": "CMC",
    "Name": "Mega Pharmacy",
    "Address": "350 A, Galle Road, Wellawatta",
    "Phone": 779179900,
    "WhatsApp": "",
    "Viber": "",
    "Email": "NULL",
    "Latitude": 6.8684648,
    "Longitude": 79.8623801
  },
  {
    "Id": 226,
    "District": "Colombo",
    "MoH": "CMC",
    "Name": "Nakeel Pharmacy(Pvt0 Ltd",
    "Address": "144/1,Thimbirigasyaya Rd,Colombo 05",
    "Phone": 112559915,
    "WhatsApp": "+94776510014",
    "Viber": "+94776510014",
    "Email": "NULL",
    "Latitude": 6.8912655,
    "Longitude": 79.8681271
  },
  {
    "Id": 227,
    "District": "Colombo",
    "MoH": "CMC",
    "Name": "Nawaloka Care Pharmacy",
    "Address": "Nawaloka Primier Wellness Center,6 Maitland Crescent,Col7",
    "Phone": 779060664,
    "WhatsApp": "+94766696657",
    "Viber": "+94766696657",
    "Email": "NULL",
    "Latitude": 6.9110768,
    "Longitude": 79.8667133
  },
  {
    "Id": 228,
    "District": "Colombo",
    "MoH": "CMC",
    "Name": "Nawaloka Hospital Pharmacy",
    "Address": "Desamanya HK Darmadasa Mw, Col 2",
    "Phone": 775577111,
    "WhatsApp": "+94770021338",
    "Viber": "+94770021338",
    "Email": "NULL",
    "Latitude": 6.9209829,
    "Longitude": 79.8534688
  },
  {
    "Id": 229,
    "District": "Colombo",
    "MoH": "CMC",
    "Name": "New Mahadi Pharmacy (Pvt) Ltd",
    "Address": "63/A, Bankshall Street, Colombo 11.",
    "Phone": 772732037,
    "WhatsApp": "+94772732037",
    "Viber": "+94772732037",
    "Email": "NULL",
    "Latitude": 6.938365,
    "Longitude": 79.8510275
  },
  {
    "Id": 230,
    "District": "Colombo",
    "MoH": "CMC",
    "Name": "New Nations Pharmacy",
    "Address": "5, W A Silva Mw, Col 6",
    "Phone": 112507836,
    "WhatsApp": "+94773577449",
    "Viber": "+94773577449",
    "Email": "NULL",
    "Latitude": 0,
    "Longitude": 0
  },
  {
    "Id": 231,
    "District": "Colombo",
    "MoH": "CMC",
    "Name": "New Pettah Pharmacy",
    "Address": "634/2C, Havelok Rd, Col 6",
    "Phone": 112367509,
    "WhatsApp": "+94773632019",
    "Viber": "+94773632019",
    "Email": "NULL",
    "Latitude": 6.8768996,
    "Longitude": 79.86964
  },
  {
    "Id": 232,
    "District": "Colombo",
    "MoH": "CMC",
    "Name": "New Pierson Pharmacy",
    "Address": "56,Thurstan Road,Col 3",
    "Phone": 112552366,
    "WhatsApp": "+94775541225",
    "Viber": "+94767022355",
    "Email": "NULL",
    "Latitude": 6.9034358,
    "Longitude": 79.8584202
  },
  {
    "Id": 233,
    "District": "Colombo",
    "MoH": "CMC",
    "Name": "New Sapphire Medical",
    "Address": "No.300, Muthuwella Mawatha, Colombo 15",
    "Phone": 773413783,
    "WhatsApp": "",
    "Viber": "",
    "Email": "NULL",
    "Latitude": 6.9656355,
    "Longitude": 79.8673442
  },
  {
    "Id": 234,
    "District": "Colombo",
    "MoH": "CMC",
    "Name": "Osu Sala, Borella",
    "Address": "LRH Premises, Borella.",
    "Phone": 112697660,
    "WhatsApp": "+94714398468",
    "Viber": "+94714398468",
    "Email": "NULL",
    "Latitude": 0,
    "Longitude": 0
  },
  {
    "Id": 235,
    "District": "Colombo",
    "MoH": "CMC",
    "Name": "Osu Sala, Colombo 01",
    "Address": "63, Sri Baron Jayathilake Mw, Colombo 01.",
    "Phone": 112320356,
    "WhatsApp": "+94778349823",
    "Viber": "+94778349823",
    "Email": "NULL",
    "Latitude": 6.936523,
    "Longitude": 79.8459597
  },
  {
    "Id": 236,
    "District": "Colombo",
    "MoH": "CMC",
    "Name": "Osu Sala, Colombo 04",
    "Address": "85, Galle Road, Colombo 04.",
    "Phone": 112587128,
    "WhatsApp": "+94717293034",
    "Viber": "+94717293034",
    "Email": "NULL",
    "Latitude": 6.8921339,
    "Longitude": 79.8561513
  },
  {
    "Id": 237,
    "District": "Colombo",
    "MoH": "CMC",
    "Name": "Osu Sala, Colombo 07",
    "Address": "255, Dharmapala Mawatha, Colombo 07.",
    "Phone": 112694716,
    "WhatsApp": "+94703466711",
    "Viber": "+94703466711",
    "Email": "NULL",
    "Latitude": 6.9167246,
    "Longitude": 79.8633185
  },
  {
    "Id": 238,
    "District": "Colombo",
    "MoH": "CMC",
    "Name": "Osu Sala, Colombo-Fort Railway",
    "Address": "Railway Station Premises, Colombo Fort.",
    "Phone": 112336926,
    "WhatsApp": "+94719864031",
    "Viber": "+94719864031",
    "Email": "NULL",
    "Latitude": 6.9337011,
    "Longitude": 79.8500302
  },
  {
    "Id": 239,
    "District": "Colombo",
    "MoH": "CMC",
    "Name": "PKP Pharmacy",
    "Address": "No.04, Sounders Place, Colombo 12",
    "Phone": 773989668,
    "WhatsApp": "",
    "Viber": "",
    "Email": "NULL",
    "Latitude": 6.9392129,
    "Longitude": 79.8568115
  },
  {
    "Id": 240,
    "District": "Colombo",
    "MoH": "CMC",
    "Name": "Safeway Center Pharmacy",
    "Address": "No.574, Dematagoda Road, Colombo 09",
    "Phone": 778999007,
    "WhatsApp": "",
    "Viber": "",
    "Email": "NULL",
    "Latitude": 6.9303275,
    "Longitude": 79.8774507
  },
  {
    "Id": 241,
    "District": "Colombo",
    "MoH": "CMC",
    "Name": "Shine-A Pharma",
    "Address": "",
    "Phone": 777958999,
    "WhatsApp": "+94777958999",
    "Viber": "+94777958999",
    "Email": "NULL",
    "Latitude": 6.8884134,
    "Longitude": 79.8703122
  },
  {
    "Id": 242,
    "District": "Colombo",
    "MoH": "CMC",
    "Name": "Shree Pharmacy",
    "Address": "Jampattah Street, Colombo 13",
    "Phone": 777851909,
    "WhatsApp": "",
    "Viber": "",
    "Email": "NULL",
    "Latitude": 6.9468115,
    "Longitude": 79.8566633
  },
  {
    "Id": 243,
    "District": "Colombo",
    "MoH": "CMC",
    "Name": "Siri Medical Stores(Pvt)Ltd",
    "Address": "732a, Maradana Rd,Colombo 10.",
    "Phone": 112694842,
    "WhatsApp": "+94773911340",
    "Viber": "+94773911340",
    "Email": "NULL",
    "Latitude": 6.9228982,
    "Longitude": 79.8693724
  },
  {
    "Id": 244,
    "District": "Colombo",
    "MoH": "CMC",
    "Name": "Sisira Pharmacy",
    "Address": "",
    "Phone": 770822798,
    "WhatsApp": "",
    "Viber": "",
    "Email": "NULL",
    "Latitude": 0,
    "Longitude": 0
  },
  {
    "Id": 245,
    "District": "Colombo",
    "MoH": "CMC",
    "Name": "Talent Pharma",
    "Address": "02, D.S.Senanayaka Mawatha,Co 08.",
    "Phone": 777231112,
    "WhatsApp": "+94777231112",
    "Viber": "+94777231112",
    "Email": "NULL",
    "Latitude": 6.9144365,
    "Longitude": 79.8772808
  },
  {
    "Id": 246,
    "District": "Colombo",
    "MoH": "CMC",
    "Name": "Union Chemist (Pvt) Ltd",
    "Address": "",
    "Phone": 773483484,
    "WhatsApp": "+94773483484",
    "Viber": "",
    "Email": "NULL",
    "Latitude": 6.9177047,
    "Longitude": 79.8630878
  },
  {
    "Id": 247,
    "District": "Colombo",
    "MoH": "CMC",
    "Name": "Union Chemists",
    "Address": "Colombo 2",
    "Phone": 112692532,
    "WhatsApp": "+94763592765",
    "Viber": "",
    "Email": "NULL",
    "Latitude": 6.9177047,
    "Longitude": 79.8630878
  },
  {
    "Id": 248,
    "District": "Colombo",
    "MoH": "CMC",
    "Name": "Union chemists",
    "Address": "Narahenpita",
    "Phone": 112369827,
    "WhatsApp": "+94763592767",
    "Viber": "",
    "Email": "NULL",
    "Latitude": 6.8927528,
    "Longitude": 79.875457
  },
  {
    "Id": 249,
    "District": "Colombo",
    "MoH": "CMC",
    "Name": "USN Pharmacy",
    "Address": "",
    "Phone": 777719545,
    "WhatsApp": "",
    "Viber": "+94777719545",
    "Email": "NULL",
    "Latitude": 0,
    "Longitude": 0
  },
  {
    "Id": 250,
    "District": "Colombo",
    "MoH": "CMC",
    "Name": "Vaigee Pharmacy",
    "Address": "289A,Galle Rd,Col 6",
    "Phone": 112360270,
    "WhatsApp": "+94759360272",
    "Viber": "+94759360272",
    "Email": "NULL",
    "Latitude": 6.0535185,
    "Longitude": 80.2209773
  },
  {
    "Id": 251,
    "District": "Colombo",
    "MoH": "CMC",
    "Name": "Wellawata Drugs",
    "Address": "122,Wa Silva Mw,Cpl 6",
    "Phone": 112505493,
    "WhatsApp": "+94762965180",
    "Viber": "+94762965180",
    "Email": "NULL",
    "Latitude": 6.8765824,
    "Longitude": 79.8663998
  },
  {
    "Id": 252,
    "District": "Colombo",
    "MoH": "CMC",
    "Name": "Wellawatha Pharmacy",
    "Address": "222, Galle Road, Wellawatha, Colombo 6",
    "Phone": 771629878,
    "WhatsApp": "",
    "Viber": "",
    "Email": "NULL",
    "Latitude": 6.8719382,
    "Longitude": 79.8617894
  },
  {
    "Id": 253,
    "District": "Colombo",
    "MoH": "CMC",
    "Name": "Wellawatta Medicals",
    "Address": "No, 01 St. Lawrence Road Wellawatta",
    "Phone": 777109914,
    "WhatsApp": "",
    "Viber": "",
    "Email": "NULL",
    "Latitude": 6.8725851,
    "Longitude": 79.8621278
  },
  {
    "Id": 254,
    "District": "Colombo",
    "MoH": "CMC",
    "Name": "Wijaya Pharmacy",
    "Address": "107/2, Wijayakumaratunga Mawatha,Colombo 05",
    "Phone": 112199125,
    "WhatsApp": "+94771177618",
    "Viber": "+94771177618",
    "Email": "NULL",
    "Latitude": 7.1263243,
    "Longitude": 79.8778084
  },
  {
    "Id": 255,
    "District": "Colombo",
    "MoH": "CMC",
    "Name": "Wellawatta Raj Pharmacy",
    "Address": "164,WA Silva Mw,Col 6",
    "Phone": 112367180,
    "WhatsApp": "+94773309336",
    "Viber": "+94773309336",
    "Email": "NULL",
    "Latitude": 6.8768335,
    "Longitude": 79.8680505
  },
  {
    "Id": 256,
    "District": "Colombo",
    "MoH": "CMC",
    "Name": "CDEM Pharmacy",
    "Address": "No. 21, Norris Canal Rd, Colombo10.",
    "Phone": 117446178,
    "WhatsApp": "+94777981107",
    "Viber": "+94777981107",
    "Email": "NULL",
    "Latitude": 6.9227878,
    "Longitude": 79.8658199
  },
  {
    "Id": 257,
    "District": "Colombo",
    "MoH": "CMC",
    "Name": "A Colombo Pharmacy",
    "Address": "UG 93,97, Peoples Park, Colombo 11",
    "Phone": 773771446,
    "WhatsApp": "+94773771446",
    "Viber": "",
    "Email": "NULL",
    "Latitude": 6.9380556,
    "Longitude": 79.8552778
  },
  {
    "Id": 258,
    "District": "Colombo",
    "MoH": "CMC",
    "Name": "J G Pharmacy",
    "Address": "389,Elvitigala Mawatha,Colombo 05",
    "Phone": 767323539,
    "WhatsApp": "+94767323539",
    "Viber": "+94767323539",
    "Email": "NULL",
    "Latitude": 6.8964107,
    "Longitude": 79.8772215
  },
  {
    "Id": 259,
    "District": "Colombo",
    "MoH": "CMC",
    "Name": "Maura Pharmacy",
    "Address": "430/3 Maura Place, Havelock Road , Colombo 06",
    "Phone": 716825991,
    "WhatsApp": "+94716825991",
    "Viber": "+94716825991",
    "Email": "NULL",
    "Latitude": 6.882502,
    "Longitude": 79.868971
  },
  {
    "Id": 260,
    "District": "Colombo",
    "MoH": "CMC",
    "Name": "Sahanco Pharmacy",
    "Address": "46,Baseline rd,Colombo 08",
    "Phone": 772443807,
    "WhatsApp": "+94772443807",
    "Viber": "+94772443807",
    "Email": "NULL",
    "Latitude": 6.9158585,
    "Longitude": 79.8778903
  },
  {
    "Id": 261,
    "District": "Colombo",
    "MoH": "CMC",
    "Name": "Western pharmacy  & super center",
    "Address": "388/c baseline road damatagoda Colombo 09",
    "Phone": 773746532,
    "WhatsApp": "",
    "Viber": "",
    "Email": "NULL",
    "Latitude": 6.9318333,
    "Longitude": 79.8782531
  },
  {
    "Id": 262,
    "District": "Colombo",
    "MoH": "CMC",
    "Name": "People's York Pharma",
    "Address": "123/H,E.W Perera Mw,Col 10",
    "Phone": 714811928,
    "WhatsApp": "+94772352181",
    "Viber": "+94774422222",
    "Email": "NULL",
    "Latitude": 0,
    "Longitude": 0
  },
  {
    "Id": 263,
    "District": "Colombo",
    "MoH": "CMC",
    "Name": "Dhanwanthri Pharmacy",
    "Address": "382,Galle rd,Col 6",
    "Phone": 112362166,
    "WhatsApp": "+94773013774",
    "Viber": "+94773013774",
    "Email": "NULL",
    "Latitude": 6.8677778,
    "Longitude": 79.8625
  },
  {
    "Id": 264,
    "District": "Colombo",
    "MoH": "CMC",
    "Name": "Metro Pharmacy",
    "Address": "340,Galle rd,Col 6",
    "Phone": 779677655,
    "WhatsApp": "+94779677655",
    "Viber": "+94778809630",
    "Email": "NULL",
    "Latitude": 6.8687107,
    "Longitude": 79.8623537
  },
  {
    "Id": 265,
    "District": "Colombo",
    "MoH": "CMC",
    "Name": "Asiri Surgical OPD pharmacy",
    "Address": "21 - Kirimandala mawatha Colombo -05",
    "Phone": 777763696,
    "WhatsApp": "+94702549519",
    "Viber": "+94702549519",
    "Email": "NULL",
    "Latitude": 6.8946111,
    "Longitude": 79.8795427
  },
  {
    "Id": 266,
    "District": "Colombo",
    "MoH": "CMC",
    "Name": "Asiri Central OPD pharmacy",
    "Address": "114 Noris cannal road, Colmbo -10",
    "Phone": 777763696,
    "WhatsApp": "+94778254891",
    "Viber": "+94778254891",
    "Email": "NULL",
    "Latitude": 6.9203993,
    "Longitude": 79.8658784
  },
  {
    "Id": 267,
    "District": "Colombo",
    "MoH": "CMC",
    "Name": "A Baur & Co Pvt Ltd",
    "Address": "55,Grandpass rd, Col 14",
    "Phone": 768200100,
    "WhatsApp": "+94768200100",
    "Viber": "+94768200100",
    "Email": "NULL",
    "Latitude": 6.9511189,
    "Longitude": 79.8740747
  },
  {
    "Id": 268,
    "District": "Colombo",
    "MoH": "Homagama",
    "Name": "Asiri Pharmacy",
    "Address": "168/4/A, Borella Rd, Godagama",
    "Phone": 714296668,
    "WhatsApp": "+94714296668",
    "Viber": "",
    "Email": "NULL",
    "Latitude": 6.8518805,
    "Longitude": 80.0325412
  },
  {
    "Id": 269,
    "District": "Colombo",
    "MoH": "Homagama",
    "Name": "Asiri Pharmacy",
    "Address": "Godagama",
    "Phone": 774785616,
    "WhatsApp": "",
    "Viber": "",
    "Email": "NULL",
    "Latitude": 6.8518805,
    "Longitude": 80.0325412
  },
  {
    "Id": 270,
    "District": "Colombo",
    "MoH": "Homagama",
    "Name": "Kmp Pharmacy",
    "Address": "159/5 Horana Road,Kottawa",
    "Phone": 115656994,
    "WhatsApp": "",
    "Viber": "+94774522748",
    "Email": "NULL",
    "Latitude": 6.8397975,
    "Longitude": 79.9647989
  },
  {
    "Id": 271,
    "District": "Colombo",
    "MoH": "Homagama",
    "Name": "Madawa Pharmacy",
    "Address": "Meegoda",
    "Phone": 707512103,
    "WhatsApp": "",
    "Viber": "",
    "Email": "NULL",
    "Latitude": 0,
    "Longitude": 0
  },
  {
    "Id": 272,
    "District": "Colombo",
    "MoH": "Homagama",
    "Name": "Meegoda Medi House",
    "Address": "487/1A, Highlevel Rd, Meegoda,",
    "Phone": 112752455,
    "WhatsApp": "+94772948700",
    "Viber": "+94772948700",
    "Email": "NULL",
    "Latitude": 6.8532056,
    "Longitude": 80.039812
  },
  {
    "Id": 273,
    "District": "Colombo",
    "MoH": "Homagama",
    "Name": "New T&N Chemist Pharmacy",
    "Address": "31 Station Road Homagama",
    "Phone": 712822021,
    "WhatsApp": "+94712822021",
    "Viber": "+94712822021",
    "Email": "NULL",
    "Latitude": 6.8432762,
    "Longitude": 80.0031833
  },
  {
    "Id": 274,
    "District": "Colombo",
    "MoH": "Homagama",
    "Name": "Rupa",
    "Address": "190/A, Katuwana Rd, Uduwana, Homagama",
    "Phone": 112748918,
    "WhatsApp": "+94702877042",
    "Viber": "",
    "Email": "NULL",
    "Latitude": 6.2636238,
    "Longitude": 80.6909448
  },
  {
    "Id": 275,
    "District": "Colombo",
    "MoH": "Homagama",
    "Name": "Samadhi pharmacy",
    "Address": "178/1/C, Borella Rd, Godagama,",
    "Phone": 779493700,
    "WhatsApp": "+94779493700",
    "Viber": "+94779493700",
    "Email": "NULL",
    "Latitude": 6.8522871,
    "Longitude": 80.0325749
  },
  {
    "Id": 276,
    "District": "Colombo",
    "MoH": "Homagama",
    "Name": "Sudhasinghe Pharmacy",
    "Address": "541/B, Kiribeariya Junction, Pitipana North, Homagama",
    "Phone": 712188451,
    "WhatsApp": "+94719018549",
    "Viber": "+94719018549",
    "Email": "NULL",
    "Latitude": 6.8402004,
    "Longitude": 80.021995
  },
  {
    "Id": 277,
    "District": "Colombo",
    "MoH": "Homagama",
    "Name": "Suwahasa Pharmacy",
    "Address": "92/C, Avissawella Rd, Homagama",
    "Phone": 788162289,
    "WhatsApp": "+94788162289",
    "Viber": "+94788162289",
    "Email": "NULL",
    "Latitude": 6.8413331,
    "Longitude": 80.0047448
  },
  {
    "Id": 278,
    "District": "Colombo",
    "MoH": "Homagama",
    "Name": "Swasatha Pharmacy",
    "Address": "20 Katuwana Road Homagama",
    "Phone": 719013009,
    "WhatsApp": "+94719013009",
    "Viber": "+94719013009",
    "Email": "NULL",
    "Latitude": 6.8326343,
    "Longitude": 80.0037342
  },
  {
    "Id": 279,
    "District": "Colombo",
    "MoH": "Homagama",
    "Name": "Thunsetha",
    "Address": "138/1, Katuwana Rd, Homagama",
    "Phone": 777009060,
    "WhatsApp": "+94777009060",
    "Viber": "",
    "Email": "NULL",
    "Latitude": 6.8339322,
    "Longitude": 79.9989895
  },
  {
    "Id": 280,
    "District": "Colombo",
    "MoH": "Homagama",
    "Name": "Homagama Pharmacy (Pvt) Ltd",
    "Address": "88, Station Road. Homagama.",
    "Phone": 714094154,
    "WhatsApp": "+94714094154",
    "Viber": "+94714094154",
    "Email": "NULL",
    "Latitude": 6.8431829,
    "Longitude": 80.0036135
  },
  {
    "Id": 281,
    "District": "Colombo",
    "MoH": "Homagama",
    "Name": "Gamage Pharmacy",
    "Address": "No: 45, Katuwana Road, Homagama.",
    "Phone": 112086841,
    "WhatsApp": "+94772273160",
    "Viber": "+94772273160",
    "Email": "NULL",
    "Latitude": 6.8407297,
    "Longitude": 80.0031316
  },
  {
    "Id": 282,
    "District": "Colombo",
    "MoH": "Kaduwela",
    "Name": "Be Well",
    "Address": "171/G, Sumanathissa Mawatha, Karathota, Kaduwela",
    "Phone": 714413475,
    "WhatsApp": "+94714413475",
    "Viber": "+94718477516",
    "Email": "NULL",
    "Latitude": 6.929061,
    "Longitude": 79.9827754
  },
  {
    "Id": 283,
    "District": "Colombo",
    "MoH": "Kaduwela",
    "Name": "Central Pharmacy",
    "Address": "Athurugiriya",
    "Phone": 779217086,
    "WhatsApp": "",
    "Viber": "",
    "Email": "NULL",
    "Latitude": 0,
    "Longitude": 0
  },
  {
    "Id": 284,
    "District": "Colombo",
    "MoH": "Kaduwela",
    "Name": "Central Pharmacy",
    "Address": "No.252/A, Koswatte, Thalangama",
    "Phone": 112875711,
    "WhatsApp": "+94776013903",
    "Viber": "+94711869616",
    "Email": "NULL",
    "Latitude": 6.9108901,
    "Longitude": 79.9293251
  },
  {
    "Id": 285,
    "District": "Colombo",
    "MoH": "Kaduwela",
    "Name": "Elite Pharmacy",
    "Address": "",
    "Phone": 779993388,
    "WhatsApp": "",
    "Viber": "",
    "Email": "NULL",
    "Latitude": 39.5705032,
    "Longitude": -104.9873602
  },
  {
    "Id": 286,
    "District": "Colombo",
    "MoH": "Kaduwela",
    "Name": "Medico Holding Pharmacy",
    "Address": "366/1,Kaduwela Road,Battaramulla",
    "Phone": 112885782,
    "WhatsApp": "",
    "Viber": "+94711339550",
    "Email": "NULL",
    "Latitude": 6.9040441,
    "Longitude": 79.9237635
  },
  {
    "Id": 287,
    "District": "Colombo",
    "MoH": "Kaduwela",
    "Name": "Nawaloka Care Pharmacy",
    "Address": "150,Main Street,Battaramulla",
    "Phone": 765586066,
    "WhatsApp": "+94768960664",
    "Viber": "+94768960664",
    "Email": "NULL",
    "Latitude": 6.8979941,
    "Longitude": 79.9222869
  },
  {
    "Id": 288,
    "District": "Colombo",
    "MoH": "Kaduwela",
    "Name": "New Hasara City Medical",
    "Address": "53/10, Main Street, Athurugiriya",
    "Phone": 767341342,
    "WhatsApp": "+94783641919",
    "Viber": "+94767341342",
    "Email": "NULL",
    "Latitude": 6.8767452,
    "Longitude": 79.9901599
  },
  {
    "Id": 289,
    "District": "Colombo",
    "MoH": "Kaduwela",
    "Name": "Okmed",
    "Address": "440/A, Avissawella Rd, Kaduwela",
    "Phone": 719141337,
    "WhatsApp": "+94719141337",
    "Viber": "",
    "Email": "NULL",
    "Latitude": 6.9391573,
    "Longitude": 79.8927908
  },
  {
    "Id": 290,
    "District": "Colombo",
    "MoH": "Kaduwela",
    "Name": "Okmed Pharmacy",
    "Address": "440 A Avissawella Road Kaduwela",
    "Phone": 719141337,
    "WhatsApp": "+94719141337",
    "Viber": "+94719141337",
    "Email": "NULL",
    "Latitude": 6.9391573,
    "Longitude": 79.8927908
  },
  {
    "Id": 291,
    "District": "Colombo",
    "MoH": "Kaduwela",
    "Name": "Oshadhi Pharmacy",
    "Address": "Arangala",
    "Phone": 773549685,
    "WhatsApp": "",
    "Viber": "",
    "Email": "NULL",
    "Latitude": 6.8913021,
    "Longitude": 79.9642508
  },
  {
    "Id": 292,
    "District": "Colombo",
    "MoH": "Kaduwela",
    "Name": "Rokem",
    "Address": "Metro Central Shopping Complex, Athurugiriya Rd, Malambe.",
    "Phone": 718690940,
    "WhatsApp": "+94718690940",
    "Viber": "+94718690940",
    "Email": "NULL",
    "Latitude": 6.9031592,
    "Longitude": 79.9554672
  },
  {
    "Id": 293,
    "District": "Colombo",
    "MoH": "Kaduwela",
    "Name": "Rokem Pharmacy",
    "Address": "Metro Center Shopping Complex Athugriya Malabe",
    "Phone": 112762968,
    "WhatsApp": "+94718690940",
    "Viber": "+94718690940",
    "Email": "NULL",
    "Latitude": 6.9031592,
    "Longitude": 79.9554672
  },
  {
    "Id": 294,
    "District": "Colombo",
    "MoH": "Kaduwela",
    "Name": "Saviru Pharmacy",
    "Address": "67/E, Main Street, Kaduwela",
    "Phone": 727224422,
    "WhatsApp": "+94727224422",
    "Viber": "+94727224422",
    "Email": "NULL",
    "Latitude": 6.9364702,
    "Longitude": 79.9827942
  },
  {
    "Id": 295,
    "District": "Colombo",
    "MoH": "Kaduwela",
    "Name": "Starx Pharmacy",
    "Address": "5c, Weliwita, Kaduwela",
    "Phone": 778119481,
    "WhatsApp": "+94778119481",
    "Viber": "+94778119481",
    "Email": "NULL",
    "Latitude": 6.9381284,
    "Longitude": 79.9581592
  },
  {
    "Id": 296,
    "District": "Colombo",
    "MoH": "Kaduwela",
    "Name": "T & N Life Care",
    "Address": "38, Pannipitiya Rd, Battaramulla",
    "Phone": 713922021,
    "WhatsApp": "+94713922021",
    "Viber": "",
    "Email": "NULL",
    "Latitude": 6.8979941,
    "Longitude": 79.9222869
  },
  {
    "Id": 297,
    "District": "Colombo",
    "MoH": "Kaduwela",
    "Name": "Thumsetha Pharmacy (Pvt) Ltd.",
    "Address": "No.258/37A, Kahanthota Road, Malabe.",
    "Phone": 777009060,
    "WhatsApp": "+94777009060",
    "Viber": "",
    "Email": "NULL",
    "Latitude": 6.9042101,
    "Longitude": 79.9732913
  },
  {
    "Id": 298,
    "District": "Colombo",
    "MoH": "Kaduwela",
    "Name": "SNS Pharmacy",
    "Address": "1593, Kaduwela Road, Aturugiriya",
    "Phone": 112771707,
    "WhatsApp": "+94773564796",
    "Viber": "+94773564796",
    "Email": "NULL",
    "Latitude": 6.9038189,
    "Longitude": 79.9561937
  },
  {
    "Id": 299,
    "District": "Colombo",
    "MoH": "Kaduwela",
    "Name": "Kotikawatta Pharmacy",
    "Address": "16,Kotikawatta Super Market,Kotikawatta",
    "Phone": 112419078,
    "WhatsApp": "+9477772400",
    "Viber": "+94777703325",
    "Email": "NULL",
    "Latitude": 6.9355454,
    "Longitude": 79.9161026
  },
  {
    "Id": 300,
    "District": "Colombo",
    "MoH": "Maharagama",
    "Name": "Neynuja Pharmacy",
    "Address": "114/1/1 Highlevel Road Kottawa",
    "Phone": 778112367,
    "WhatsApp": "+94778112367",
    "Viber": "+94778112367",
    "Email": "NULL",
    "Latitude": 6.8402903,
    "Longitude": 79.9672384
  },
  {
    "Id": 301,
    "District": "Colombo",
    "MoH": "Maharagama",
    "Name": "Central Pharmacy & Grocery",
    "Address": "No.21, High Level Rd, Maharagama",
    "Phone": 714347091,
    "WhatsApp": "+94714347091",
    "Viber": "",
    "Email": "NULL",
    "Latitude": 6.8469099,
    "Longitude": 79.9270472
  },
  {
    "Id": 302,
    "District": "Colombo",
    "MoH": "Maharagama",
    "Name": "CFC Healthcare",
    "Address": "531, Keels Super, Capital Wall, Madiwela Rd, Thalawathugoda",
    "Phone": 759484811,
    "WhatsApp": "+94759484811",
    "Viber": "",
    "Email": "NULL",
    "Latitude": 6.8758648,
    "Longitude": 79.9391936
  },
  {
    "Id": 303,
    "District": "Colombo",
    "MoH": "Maharagama",
    "Name": "City Health Pharmacy",
    "Address": "737, Pannipitiya Road, Thalawathugoda",
    "Phone": 112773277,
    "WhatsApp": "+94772608060",
    "Viber": "+94772608060",
    "Email": "NULL",
    "Latitude": 6.8758648,
    "Longitude": 79.9391936
  },
  {
    "Id": 304,
    "District": "Colombo",
    "MoH": "Maharagama",
    "Name": "City Pharma 1",
    "Address": "Maharagama",
    "Phone": 773811720,
    "WhatsApp": "",
    "Viber": "",
    "Email": "NULL",
    "Latitude": 6.8510951,
    "Longitude": 79.9212011
  },
  {
    "Id": 305,
    "District": "Colombo",
    "MoH": "Maharagama",
    "Name": "City Pharmacy",
    "Address": "115/A High Level Road, Maharagama",
    "Phone": 112837086,
    "WhatsApp": "+94773811730",
    "Viber": "+94773811730",
    "Email": "NULL",
    "Latitude": 6.8487833,
    "Longitude": 79.9244914
  },
  {
    "Id": 306,
    "District": "Colombo",
    "MoH": "Maharagama",
    "Name": "Gagana Pharmacy",
    "Address": "104/1/A, Moraketiya, Pannipitiya",
    "Phone": 114019677,
    "WhatsApp": "+94774296628",
    "Viber": "",
    "Email": "NULL",
    "Latitude": 6.845643,
    "Longitude": 79.9520585
  },
  {
    "Id": 307,
    "District": "Colombo",
    "MoH": "Maharagama",
    "Name": "Jeewaka",
    "Address": "20, Kotte Rd, Thalawathugoda",
    "Phone": "",
    "WhatsApp": "+94713032959",
    "Viber": "",
    "Email": "NULL",
    "Latitude": 6.8758338,
    "Longitude": 79.9349798
  },
  {
    "Id": 308,
    "District": "Colombo",
    "MoH": "Maharagama",
    "Name": "Kingsbury Pharmacy",
    "Address": "213/B Pannipitiya Road Thalawathugoda",
    "Phone": "",
    "WhatsApp": "+94716464345",
    "Viber": "+94718581299",
    "Email": "NULL",
    "Latitude": 6.8753817,
    "Longitude": 79.9361996
  },
  {
    "Id": 309,
    "District": "Colombo",
    "MoH": "Maharagama",
    "Name": "Mahajana Nursing Home Pharmacy",
    "Address": "27/2, Rukmalgama, Pannipitiya. AND Dikhathakma, Meegoda",
    "Phone": 112898333,
    "WhatsApp": "+94768281410",
    "Viber": "",
    "Email": "NULL",
    "Latitude": 6.8521898,
    "Longitude": 79.9803652
  },
  {
    "Id": 310,
    "District": "Colombo",
    "MoH": "Maharagama",
    "Name": "Mars Pharmacy",
    "Address": "Kottawa",
    "Phone": 718174189,
    "WhatsApp": "",
    "Viber": "",
    "Email": "NULL",
    "Latitude": 6.841907,
    "Longitude": 79.964228
  },
  {
    "Id": 311,
    "District": "Colombo",
    "MoH": "Maharagama",
    "Name": "Minara Pharmacy",
    "Address": "181, Old Kottawa Road, Nawinna",
    "Phone": 112840344,
    "WhatsApp": "+94717307749",
    "Viber": "+94757475000",
    "Email": "NULL",
    "Latitude": 6.8710649,
    "Longitude": 79.9065359
  },
  {
    "Id": 312,
    "District": "Colombo",
    "MoH": "Maharagama",
    "Name": "Nawarathne Mediline",
    "Address": "70/1, Pamunuwa, Maharagama",
    "Phone": "",
    "WhatsApp": "",
    "Viber": "+94714293083",
    "Email": "NULL",
    "Latitude": 6.8613216,
    "Longitude": 79.9288372
  },
  {
    "Id": 313,
    "District": "Colombo",
    "MoH": "Maharagama",
    "Name": "Osu Sala, Maharagama",
    "Address": "71/A, Alwis Plaza, Old Road, Maharagama.",
    "Phone": "",
    "WhatsApp": "+94718151629",
    "Viber": "+94718151629",
    "Email": "NULL",
    "Latitude": 6.8477178,
    "Longitude": 79.9266445
  },
  {
    "Id": 314,
    "District": "Colombo",
    "MoH": "Maharagama",
    "Name": "Promed Pharmacy",
    "Address": "23/1, Hokandara Road, Kalallhoda, Pannipitiya",
    "Phone": "",
    "WhatsApp": "",
    "Viber": "+94752991991",
    "Email": "NULL",
    "Latitude": 6.8768296,
    "Longitude": 79.9372136
  },
  {
    "Id": 315,
    "District": "Colombo",
    "MoH": "Maharagama",
    "Name": "Saparo Pharmacy",
    "Address": "No 06D, Piliyandala Rd, Maharagama",
    "Phone": 714128488,
    "WhatsApp": "",
    "Viber": "",
    "Email": "NULL",
    "Latitude": 6.8461419,
    "Longitude": 79.9262335
  },
  {
    "Id": 316,
    "District": "Colombo",
    "MoH": "Maharagama",
    "Name": "Shani Pharmacy",
    "Address": "",
    "Phone": 718720984,
    "WhatsApp": "",
    "Viber": "",
    "Email": "NULL",
    "Latitude": 36.7695265,
    "Longitude": -76.2298962
  },
  {
    "Id": 317,
    "District": "Colombo",
    "MoH": "Maharagama",
    "Name": "Suwahasa Pharmacy",
    "Address": "423, Old Road, Moraketiya, Pannipitiya.",
    "Phone": 785011817,
    "WhatsApp": "+94785011817",
    "Viber": "+94785011817",
    "Email": "NULL",
    "Latitude": 6.8459069,
    "Longitude": 79.9530948
  },
  {
    "Id": 318,
    "District": "Colombo",
    "MoH": "Maharagama",
    "Name": "Suwaya Chemists",
    "Address": "",
    "Phone": 718193844,
    "WhatsApp": "",
    "Viber": "",
    "Email": "NULL",
    "Latitude": 0,
    "Longitude": 0
  },
  {
    "Id": 319,
    "District": "Colombo",
    "MoH": "Maharagama",
    "Name": "Suwelka Pharmacy",
    "Address": "Kottawa",
    "Phone": 770617855,
    "WhatsApp": "",
    "Viber": "",
    "Email": "NULL",
    "Latitude": 6.8449189,
    "Longitude": 79.9705081
  },
  {
    "Id": 320,
    "District": "Colombo",
    "MoH": "Maharagama",
    "Name": "Thanuja Pharmacy",
    "Address": "",
    "Phone": 777218539,
    "WhatsApp": "",
    "Viber": "",
    "Email": "NULL",
    "Latitude": 6.8509427,
    "Longitude": 79.9212594
  },
  {
    "Id": 321,
    "District": "Colombo",
    "MoH": "Maharagama",
    "Name": "tharindu pharmacy",
    "Address": "01, Super Market, Dehiwala Rd, Maharagama",
    "Phone": 112897659,
    "WhatsApp": "+94758050970",
    "Viber": "+94776018671",
    "Email": "NULL",
    "Latitude": 6.8468021,
    "Longitude": 79.9265188
  },
  {
    "Id": 322,
    "District": "Colombo",
    "MoH": "Maharagama",
    "Name": "Jeewaka Pharmacy",
    "Address": "",
    "Phone": 713032956,
    "WhatsApp": "",
    "Viber": "",
    "Email": "NULL",
    "Latitude": 6.8758338,
    "Longitude": 79.9349798
  },
  {
    "Id": 323,
    "District": "Colombo",
    "MoH": "Maharagama",
    "Name": "Kingsbury",
    "Address": "No: 213/B/2, Pannipitiya Road, Thalawathugoda",
    "Phone": 716464345,
    "WhatsApp": "+94716464345",
    "Viber": "+94716464345",
    "Email": "NULL",
    "Latitude": 6.87602,
    "Longitude": 79.9355158
  },